[
    {
        "name": "中国",
        "lng": 116.3683244,
        "lat": 39.915085
    },
    {
        "name": "北京",
        "lng": 116.405285,
        "lat": 39.904989
    },
    {
        "name": "北京市",
        "lng": 116.405285,
        "lat": 39.904989
    },
    {
        "name": "东城区",
        "lng": 116.41005,
        "lat": 39.93157
    },
    {
        "name": "西城区",
        "lng": 116.36003,
        "lat": 39.9305
    },
    {
        "name": "朝阳区",
        "lng": 116.48548,
        "lat": 39.9484
    },
    {
        "name": "丰台区",
        "lng": 116.28625,
        "lat": 39.8585
    },
    {
        "name": "石景山区",
        "lng": 116.2229,
        "lat": 39.90564
    },
    {
        "name": "海淀区",
        "lng": 116.29812,
        "lat": 39.95931
    },
    {
        "name": "门头沟区",
        "lng": 116.10137,
        "lat": 39.94043
    },
    {
        "name": "房山区",
        "lng": 116.14257,
        "lat": 39.74786
    },
    {
        "name": "通州区",
        "lng": 116.65716,
        "lat": 39.90966
    },
    {
        "name": "顺义区",
        "lng": 116.65417,
        "lat": 40.1302
    },
    {
        "name": "昌平区",
        "lng": 116.2312,
        "lat": 40.22072
    },
    {
        "name": "大兴区",
        "lng": 116.34149,
        "lat": 39.72668
    },
    {
        "name": "怀柔区",
        "lng": 116.63168,
        "lat": 40.31602
    },
    {
        "name": "平谷区",
        "lng": 117.12133,
        "lat": 40.14056
    },
    {
        "name": "密云县",
        "lng": 116.84295,
        "lat": 40.37618
    },
    {
        "name": "延庆县",
        "lng": 115.97494,
        "lat": 40.45672
    },
    {
        "name": "天津",
        "lng": 117.190182,
        "lat": 39.125596
    },
    {
        "name": "天津市",
        "lng": 117.190182,
        "lat": 39.125596
    },
    {
        "name": "和平区",
        "lng": 117.21456,
        "lat": 39.11718
    },
    {
        "name": "河东区",
        "lng": 117.22562,
        "lat": 39.12318
    },
    {
        "name": "河西区",
        "lng": 117.22327,
        "lat": 39.10959
    },
    {
        "name": "南开区",
        "lng": 117.15074,
        "lat": 39.13821
    },
    {
        "name": "河北区",
        "lng": 117.19697,
        "lat": 39.14816
    },
    {
        "name": "红桥区",
        "lng": 117.15145,
        "lat": 39.16715
    },
    {
        "name": "东丽区",
        "lng": 117.31436,
        "lat": 39.0863
    },
    {
        "name": "西青区",
        "lng": 117.00927,
        "lat": 39.14123
    },
    {
        "name": "津南区",
        "lng": 117.38537,
        "lat": 38.99139
    },
    {
        "name": "北辰区",
        "lng": 117.13217,
        "lat": 39.22131
    },
    {
        "name": "武清区",
        "lng": 117.04443,
        "lat": 39.38415
    },
    {
        "name": "宝坻区",
        "lng": 117.3103,
        "lat": 39.71761
    },
    {
        "name": "滨海新区",
        "lng": 117.70162,
        "lat": 39.02668
    },
    {
        "name": "宁河县",
        "lng": 117.8255,
        "lat": 39.33048
    },
    {
        "name": "静海县",
        "lng": 116.97436,
        "lat": 38.94582
    },
    {
        "name": "蓟县",
        "lng": 117.40799,
        "lat": 40.04567
    },
    {
        "name": "河北省",
        "lng": 114.502461,
        "lat": 38.045474
    },
    {
        "name": "石家庄市",
        "lng": 114.502461,
        "lat": 38.045474
    },
    {
        "name": "长安区",
        "lng": 114.53906,
        "lat": 38.03665
    },
    {
        "name": "桥西区",
        "lng": 114.46977,
        "lat": 38.03221
    },
    {
        "name": "新华区",
        "lng": 114.46326,
        "lat": 38.05088
    },
    {
        "name": "井陉矿区",
        "lng": 114.06518,
        "lat": 38.06705
    },
    {
        "name": "裕华区",
        "lng": 114.53115,
        "lat": 38.00604
    },
    {
        "name": "藁城区",
        "lng": 114.84671,
        "lat": 38.02162
    },
    {
        "name": "鹿泉区",
        "lng": 114.31347,
        "lat": 38.08782
    },
    {
        "name": "栾城区",
        "lng": 114.64834,
        "lat": 37.90022
    },
    {
        "name": "井陉县",
        "lng": 114.14257,
        "lat": 38.03688
    },
    {
        "name": "正定县",
        "lng": 114.57296,
        "lat": 38.14445
    },
    {
        "name": "行唐县",
        "lng": 114.55316,
        "lat": 38.43654
    },
    {
        "name": "灵寿县",
        "lng": 114.38259,
        "lat": 38.30845
    },
    {
        "name": "高邑县",
        "lng": 114.61142,
        "lat": 37.61556
    },
    {
        "name": "深泽县",
        "lng": 115.20358,
        "lat": 38.18353
    },
    {
        "name": "赞皇县",
        "lng": 114.38775,
        "lat": 37.66135
    },
    {
        "name": "无极县",
        "lng": 114.97509,
        "lat": 38.17653
    },
    {
        "name": "平山县",
        "lng": 114.186,
        "lat": 38.25994
    },
    {
        "name": "元氏县",
        "lng": 114.52539,
        "lat": 37.76668
    },
    {
        "name": "赵县",
        "lng": 114.77612,
        "lat": 37.75628
    },
    {
        "name": "辛集市",
        "lng": 115.20626,
        "lat": 37.94079
    },
    {
        "name": "晋州市",
        "lng": 115.04348,
        "lat": 38.03135
    },
    {
        "name": "新乐市",
        "lng": 114.68985,
        "lat": 38.34417
    },
    {
        "name": "唐山市",
        "lng": 118.175393,
        "lat": 39.635113
    },
    {
        "name": "路南区",
        "lng": 118.15431,
        "lat": 39.62505
    },
    {
        "name": "路北区",
        "lng": 118.20079,
        "lat": 39.62436
    },
    {
        "name": "古冶区",
        "lng": 118.45803,
        "lat": 39.71993
    },
    {
        "name": "开平区",
        "lng": 118.26171,
        "lat": 39.67128
    },
    {
        "name": "丰南区",
        "lng": 118.11282,
        "lat": 39.56483
    },
    {
        "name": "丰润区",
        "lng": 118.12976,
        "lat": 39.8244
    },
    {
        "name": "曹妃甸区",
        "lng": 118.460379,
        "lat": 39.273070
    },
    {
        "name": "滦县",
        "lng": 118.70346,
        "lat": 39.74056
    },
    {
        "name": "滦南县",
        "lng": 118.6741,
        "lat": 39.5039
    },
    {
        "name": "乐亭县",
        "lng": 118.9125,
        "lat": 39.42561
    },
    {
        "name": "迁西县",
        "lng": 118.31616,
        "lat": 40.14587
    },
    {
        "name": "玉田县",
        "lng": 117.7388,
        "lat": 39.90049
    },
    {
        "name": "遵化市",
        "lng": 117.96444,
        "lat": 40.18741
    },
    {
        "name": "迁安市",
        "lng": 118.70068,
        "lat": 39.99833
    },
    {
        "name": "秦皇岛市",
        "lng": 119.586579,
        "lat": 39.942531
    },
    {
        "name": "海港区",
        "lng": 119.61046,
        "lat": 39.9345
    },
    {
        "name": "山海关区",
        "lng": 119.77563,
        "lat": 39.97869
    },
    {
        "name": "北戴河区",
        "lng": 119.48388,
        "lat": 39.83408
    },
    {
        "name": "青龙满族自治县",
        "lng": 118.95242,
        "lat": 40.40743
    },
    {
        "name": "昌黎县",
        "lng": 119.16595,
        "lat": 39.70884
    },
    {
        "name": "抚宁县",
        "lng": 119.24487,
        "lat": 39.87538
    },
    {
        "name": "卢龙县",
        "lng": 118.89288,
        "lat": 39.89176
    },
    {
        "name": "邯郸市",
        "lng": 114.490686,
        "lat": 36.612273
    },
    {
        "name": "邯山区",
        "lng": 114.48375,
        "lat": 36.60006
    },
    {
        "name": "丛台区",
        "lng": 114.49343,
        "lat": 36.61847
    },
    {
        "name": "复兴区",
        "lng": 114.45928,
        "lat": 36.61134
    },
    {
        "name": "峰峰矿区",
        "lng": 114.21148,
        "lat": 36.41937
    },
    {
        "name": "邯郸县",
        "lng": 114.53103,
        "lat": 36.59385
    },
    {
        "name": "临漳县",
        "lng": 114.6195,
        "lat": 36.33461
    },
    {
        "name": "成安县",
        "lng": 114.66995,
        "lat": 36.44411
    },
    {
        "name": "大名县",
        "lng": 115.15362,
        "lat": 36.27994
    },
    {
        "name": "涉县",
        "lng": 113.69183,
        "lat": 36.58072
    },
    {
        "name": "磁县",
        "lng": 114.37387,
        "lat": 36.37392
    },
    {
        "name": "肥乡县",
        "lng": 114.79998,
        "lat": 36.54807
    },
    {
        "name": "永年县",
        "lng": 114.48925,
        "lat": 36.78356
    },
    {
        "name": "邱县",
        "lng": 115.17407,
        "lat": 36.82082
    },
    {
        "name": "鸡泽县",
        "lng": 114.8742,
        "lat": 36.92374
    },
    {
        "name": "广平县",
        "lng": 114.94653,
        "lat": 36.48046
    },
    {
        "name": "馆陶县",
        "lng": 115.29913,
        "lat": 36.53719
    },
    {
        "name": "魏县",
        "lng": 114.93518,
        "lat": 36.36171
    },
    {
        "name": "曲周县",
        "lng": 114.95196,
        "lat": 36.77671
    },
    {
        "name": "武安市",
        "lng": 114.20153,
        "lat": 36.69281
    },
    {
        "name": "邢台市",
        "lng": 114.508851,
        "lat": 37.0682
    },
    {
        "name": "桥东区",
        "lng": 114.50725,
        "lat": 37.06801
    },
    {
        "name": "桥西区",
        "lng": 114.46803,
        "lat": 37.05984
    },
    {
        "name": "邢台县",
        "lng": 114.56575,
        "lat": 37.0456
    },
    {
        "name": "临城县",
        "lng": 114.50387,
        "lat": 37.43977
    },
    {
        "name": "内丘县",
        "lng": 114.51212,
        "lat": 37.28671
    },
    {
        "name": "柏乡县",
        "lng": 114.69332,
        "lat": 37.48242
    },
    {
        "name": "隆尧县",
        "lng": 114.77615,
        "lat": 37.35351
    },
    {
        "name": "任县",
        "lng": 114.6842,
        "lat": 37.12575
    },
    {
        "name": "南和县",
        "lng": 114.68371,
        "lat": 37.00488
    },
    {
        "name": "宁晋县",
        "lng": 114.92117,
        "lat": 37.61696
    },
    {
        "name": "巨鹿县",
        "lng": 115.03524,
        "lat": 37.21801
    },
    {
        "name": "新河县",
        "lng": 115.24987,
        "lat": 37.52718
    },
    {
        "name": "广宗县",
        "lng": 115.14254,
        "lat": 37.0746
    },
    {
        "name": "平乡县",
        "lng": 115.03002,
        "lat": 37.06317
    },
    {
        "name": "威县",
        "lng": 115.2637,
        "lat": 36.9768
    },
    {
        "name": "清河县",
        "lng": 115.66479,
        "lat": 37.07122
    },
    {
        "name": "临西县",
        "lng": 115.50097,
        "lat": 36.87078
    },
    {
        "name": "南宫市",
        "lng": 115.39068,
        "lat": 37.35799
    },
    {
        "name": "沙河市",
        "lng": 114.4981,
        "lat": 36.8577
    },
    {
        "name": "保定市",
        "lng": 115.482331,
        "lat": 38.867657
    },
    {
        "name": "新市区",
        "lng": 115.4587,
        "lat": 38.87751
    },
    {
        "name": "北市区",
        "lng": 115.49715,
        "lat": 38.88322
    },
    {
        "name": "南市区",
        "lng": 115.52859,
        "lat": 38.85455
    },
    {
        "name": "满城县",
        "lng": 115.32296,
        "lat": 38.94972
    },
    {
        "name": "清苑县",
        "lng": 115.49267,
        "lat": 38.76709
    },
    {
        "name": "涞水县",
        "lng": 115.71517,
        "lat": 39.39404
    },
    {
        "name": "阜平县",
        "lng": 114.19683,
        "lat": 38.84763
    },
    {
        "name": "徐水县",
        "lng": 115.65829,
        "lat": 39.02099
    },
    {
        "name": "定兴县",
        "lng": 115.80786,
        "lat": 39.26312
    },
    {
        "name": "唐县",
        "lng": 114.98516,
        "lat": 38.74513
    },
    {
        "name": "高阳县",
        "lng": 115.7788,
        "lat": 38.70003
    },
    {
        "name": "容城县",
        "lng": 115.87158,
        "lat": 39.0535
    },
    {
        "name": "涞源县",
        "lng": 114.69128,
        "lat": 39.35388
    },
    {
        "name": "望都县",
        "lng": 115.1567,
        "lat": 38.70996
    },
    {
        "name": "安新县",
        "lng": 115.93557,
        "lat": 38.93532
    },
    {
        "name": "易县",
        "lng": 115.4981,
        "lat": 39.34885
    },
    {
        "name": "曲阳县",
        "lng": 114.70123,
        "lat": 38.62154
    },
    {
        "name": "蠡县",
        "lng": 115.57717,
        "lat": 38.48974
    },
    {
        "name": "顺平县",
        "lng": 115.1347,
        "lat": 38.83854
    },
    {
        "name": "博野县",
        "lng": 115.47033,
        "lat": 38.4564
    },
    {
        "name": "雄县",
        "lng": 116.10873,
        "lat": 38.99442
    },
    {
        "name": "涿州市",
        "lng": 115.98062,
        "lat": 39.48622
    },
    {
        "name": "定州市",
        "lng": 114.9902,
        "lat": 38.51623
    },
    {
        "name": "安国市",
        "lng": 115.32321,
        "lat": 38.41391
    },
    {
        "name": "高碑店市",
        "lng": 115.87368,
        "lat": 39.32655
    },
    {
        "name": "张家口市",
        "lng": 114.884091,
        "lat": 40.811901
    },
    {
        "name": "桥东区",
        "lng": 114.8943,
        "lat": 40.78844
    },
    {
        "name": "桥西区",
        "lng": 114.86962,
        "lat": 40.81945
    },
    {
        "name": "宣化区",
        "lng": 115.06543,
        "lat": 40.60957
    },
    {
        "name": "下花园区",
        "lng": 115.28744,
        "lat": 40.50236
    },
    {
        "name": "宣化县",
        "lng": 115.15497,
        "lat": 40.56618
    },
    {
        "name": "张北县",
        "lng": 114.71432,
        "lat": 41.15977
    },
    {
        "name": "康保县",
        "lng": 114.60031,
        "lat": 41.85225
    },
    {
        "name": "沽源县",
        "lng": 115.68859,
        "lat": 41.66959
    },
    {
        "name": "尚义县",
        "lng": 113.97134,
        "lat": 41.07782
    },
    {
        "name": "蔚县",
        "lng": 114.58892,
        "lat": 39.84067
    },
    {
        "name": "阳原县",
        "lng": 114.15051,
        "lat": 40.10361
    },
    {
        "name": "怀安县",
        "lng": 114.38559,
        "lat": 40.67425
    },
    {
        "name": "万全县",
        "lng": 114.7405,
        "lat": 40.76694
    },
    {
        "name": "怀来县",
        "lng": 115.51773,
        "lat": 40.41536
    },
    {
        "name": "涿鹿县",
        "lng": 115.22403,
        "lat": 40.37636
    },
    {
        "name": "赤城县",
        "lng": 115.83187,
        "lat": 40.91438
    },
    {
        "name": "崇礼县",
        "lng": 115.27993,
        "lat": 40.97519
    },
    {
        "name": "承德市",
        "lng": 117.939152,
        "lat": 40.976204
    },
    {
        "name": "双桥区",
        "lng": 117.9432,
        "lat": 40.97466
    },
    {
        "name": "双滦区",
        "lng": 117.74487,
        "lat": 40.95375
    },
    {
        "name": "鹰手营子矿区",
        "lng": 117.65985,
        "lat": 40.54744
    },
    {
        "name": "承德县",
        "lng": 118.17639,
        "lat": 40.76985
    },
    {
        "name": "兴隆县",
        "lng": 117.50073,
        "lat": 40.41709
    },
    {
        "name": "平泉县",
        "lng": 118.70196,
        "lat": 41.01839
    },
    {
        "name": "滦平县",
        "lng": 117.33276,
        "lat": 40.94148
    },
    {
        "name": "隆化县",
        "lng": 117.7297,
        "lat": 41.31412
    },
    {
        "name": "丰宁满族自治县",
        "lng": 116.6492,
        "lat": 41.20481
    },
    {
        "name": "宽城满族自治县",
        "lng": 118.49176,
        "lat": 40.60829
    },
    {
        "name": "围场满族蒙古族自治县",
        "lng": 117.7601,
        "lat": 41.94368
    },
    {
        "name": "沧州市",
        "lng": 116.857461,
        "lat": 38.310582
    },
    {
        "name": "新华区",
        "lng": 116.86643,
        "lat": 38.31438
    },
    {
        "name": "运河区",
        "lng": 116.85706,
        "lat": 38.31352
    },
    {
        "name": "沧县",
        "lng": 116.87817,
        "lat": 38.29361
    },
    {
        "name": "青县",
        "lng": 116.80316,
        "lat": 38.58345
    },
    {
        "name": "东光县",
        "lng": 116.53668,
        "lat": 37.8857
    },
    {
        "name": "海兴县",
        "lng": 117.49758,
        "lat": 38.13958
    },
    {
        "name": "盐山县",
        "lng": 117.23092,
        "lat": 38.05647
    },
    {
        "name": "肃宁县",
        "lng": 115.82971,
        "lat": 38.42272
    },
    {
        "name": "南皮县",
        "lng": 116.70224,
        "lat": 38.04109
    },
    {
        "name": "吴桥县",
        "lng": 116.3847,
        "lat": 37.62546
    },
    {
        "name": "献县",
        "lng": 116.12695,
        "lat": 38.19228
    },
    {
        "name": "孟村回族自治县",
        "lng": 117.10412,
        "lat": 38.05338
    },
    {
        "name": "泊头市",
        "lng": 116.57824,
        "lat": 38.08359
    },
    {
        "name": "任丘市",
        "lng": 116.1033,
        "lat": 38.71124
    },
    {
        "name": "黄骅市",
        "lng": 117.33883,
        "lat": 38.3706
    },
    {
        "name": "河间市",
        "lng": 116.0993,
        "lat": 38.44549
    },
    {
        "name": "廊坊市",
        "lng": 116.713873,
        "lat": 39.529244
    },
    {
        "name": "安次区",
        "lng": 116.70308,
        "lat": 39.52057
    },
    {
        "name": "广阳区",
        "lng": 116.71069,
        "lat": 39.52278
    },
    {
        "name": "固安县",
        "lng": 116.29916,
        "lat": 39.43833
    },
    {
        "name": "永清县",
        "lng": 116.50091,
        "lat": 39.32069
    },
    {
        "name": "香河县",
        "lng": 117.00634,
        "lat": 39.76133
    },
    {
        "name": "大城县",
        "lng": 116.65353,
        "lat": 38.70534
    },
    {
        "name": "文安县",
        "lng": 116.45846,
        "lat": 38.87325
    },
    {
        "name": "大厂回族自治县",
        "lng": 116.98916,
        "lat": 39.88649
    },
    {
        "name": "霸州市",
        "lng": 116.39154,
        "lat": 39.12569
    },
    {
        "name": "三河市",
        "lng": 117.07229,
        "lat": 39.98358
    },
    {
        "name": "衡水市",
        "lng": 115.665993,
        "lat": 37.735097
    },
    {
        "name": "桃城区",
        "lng": 115.67529,
        "lat": 37.73499
    },
    {
        "name": "枣强县",
        "lng": 115.72576,
        "lat": 37.51027
    },
    {
        "name": "武邑县",
        "lng": 115.88748,
        "lat": 37.80181
    },
    {
        "name": "武强县",
        "lng": 115.98226,
        "lat": 38.04138
    },
    {
        "name": "饶阳县",
        "lng": 115.72558,
        "lat": 38.23529
    },
    {
        "name": "安平县",
        "lng": 115.51876,
        "lat": 38.23388
    },
    {
        "name": "故城县",
        "lng": 115.97076,
        "lat": 37.34773
    },
    {
        "name": "景县",
        "lng": 116.26904,
        "lat": 37.6926
    },
    {
        "name": "阜城县",
        "lng": 116.14431,
        "lat": 37.86881
    },
    {
        "name": "冀州市",
        "lng": 115.57934,
        "lat": 37.55082
    },
    {
        "name": "深州市",
        "lng": 115.55993,
        "lat": 38.00109
    },
    {
        "name": "山西省",
        "lng": 112.549248,
        "lat": 37.857014
    },
    {
        "name": "太原市",
        "lng": 112.549248,
        "lat": 37.857014
    },
    {
        "name": "小店区",
        "lng": 112.56878,
        "lat": 37.73565
    },
    {
        "name": "迎泽区",
        "lng": 112.56338,
        "lat": 37.86326
    },
    {
        "name": "杏花岭区",
        "lng": 112.56237,
        "lat": 37.88429
    },
    {
        "name": "尖草坪区",
        "lng": 112.48709,
        "lat": 37.94193
    },
    {
        "name": "万柏林区",
        "lng": 112.51553,
        "lat": 37.85923
    },
    {
        "name": "晋源区",
        "lng": 112.47985,
        "lat": 37.72479
    },
    {
        "name": "清徐县",
        "lng": 112.35888,
        "lat": 37.60758
    },
    {
        "name": "阳曲县",
        "lng": 112.67861,
        "lat": 38.05989
    },
    {
        "name": "娄烦县",
        "lng": 111.79473,
        "lat": 38.06689
    },
    {
        "name": "古交市",
        "lng": 112.16918,
        "lat": 37.90983
    },
    {
        "name": "大同市",
        "lng": 113.295259,
        "lat": 40.09031
    },
    {
        "name": "城区",
        "lng": 113.298,
        "lat": 40.07566
    },
    {
        "name": "矿区",
        "lng": 113.1772,
        "lat": 40.03685
    },
    {
        "name": "南郊区",
        "lng": 113.14947,
        "lat": 40.00539
    },
    {
        "name": "新荣区",
        "lng": 113.13504,
        "lat": 40.25618
    },
    {
        "name": "阳高县",
        "lng": 113.75012,
        "lat": 40.36256
    },
    {
        "name": "天镇县",
        "lng": 114.0931,
        "lat": 40.42299
    },
    {
        "name": "广灵县",
        "lng": 114.28204,
        "lat": 39.76082
    },
    {
        "name": "灵丘县",
        "lng": 114.23672,
        "lat": 39.44043
    },
    {
        "name": "浑源县",
        "lng": 113.69552,
        "lat": 39.69962
    },
    {
        "name": "左云县",
        "lng": 112.70266,
        "lat": 40.01336
    },
    {
        "name": "大同县",
        "lng": 113.61212,
        "lat": 40.04012
    },
    {
        "name": "阳泉市",
        "lng": 113.583285,
        "lat": 37.861188
    },
    {
        "name": "城区",
        "lng": 113.60069,
        "lat": 37.8474
    },
    {
        "name": "矿区",
        "lng": 113.55677,
        "lat": 37.86895
    },
    {
        "name": "郊区",
        "lng": 113.58539,
        "lat": 37.94139
    },
    {
        "name": "平定县",
        "lng": 113.65789,
        "lat": 37.78601
    },
    {
        "name": "盂县",
        "lng": 113.41235,
        "lat": 38.08579
    },
    {
        "name": "长治市",
        "lng": 113.113556,
        "lat": 36.191112
    },
    {
        "name": "城区",
        "lng": 113.12308,
        "lat": 36.20351
    },
    {
        "name": "郊区",
        "lng": 113.12653,
        "lat": 36.19918
    },
    {
        "name": "长治县",
        "lng": 113.04791,
        "lat": 36.04722
    },
    {
        "name": "襄垣县",
        "lng": 113.05157,
        "lat": 36.53527
    },
    {
        "name": "屯留县",
        "lng": 112.89196,
        "lat": 36.31579
    },
    {
        "name": "平顺县",
        "lng": 113.43603,
        "lat": 36.20005
    },
    {
        "name": "黎城县",
        "lng": 113.38766,
        "lat": 36.50301
    },
    {
        "name": "壶关县",
        "lng": 113.207,
        "lat": 36.11301
    },
    {
        "name": "长子县",
        "lng": 112.87731,
        "lat": 36.12125
    },
    {
        "name": "武乡县",
        "lng": 112.86343,
        "lat": 36.83687
    },
    {
        "name": "沁县",
        "lng": 112.69863,
        "lat": 36.75628
    },
    {
        "name": "沁源县",
        "lng": 112.33758,
        "lat": 36.50008
    },
    {
        "name": "潞城市",
        "lng": 113.22888,
        "lat": 36.33414
    },
    {
        "name": "晋城市",
        "lng": 112.851274,
        "lat": 35.497553
    },
    {
        "name": "城区",
        "lng": 112.85319,
        "lat": 35.50175
    },
    {
        "name": "沁水县",
        "lng": 112.1871,
        "lat": 35.69102
    },
    {
        "name": "阳城县",
        "lng": 112.41485,
        "lat": 35.48614
    },
    {
        "name": "陵川县",
        "lng": 113.2806,
        "lat": 35.77532
    },
    {
        "name": "泽州县",
        "lng": 112.83947,
        "lat": 35.50789
    },
    {
        "name": "高平市",
        "lng": 112.92288,
        "lat": 35.79705
    },
    {
        "name": "朔州市",
        "lng": 112.433387,
        "lat": 39.331261
    },
    {
        "name": "朔城区",
        "lng": 112.43189,
        "lat": 39.31982
    },
    {
        "name": "平鲁区",
        "lng": 112.28833,
        "lat": 39.51155
    },
    {
        "name": "山阴县",
        "lng": 112.81662,
        "lat": 39.52697
    },
    {
        "name": "应县",
        "lng": 113.19052,
        "lat": 39.55279
    },
    {
        "name": "右玉县",
        "lng": 112.46902,
        "lat": 39.99011
    },
    {
        "name": "怀仁县",
        "lng": 113.10009,
        "lat": 39.82806
    },
    {
        "name": "晋中市",
        "lng": 112.736465,
        "lat": 37.696495
    },
    {
        "name": "榆次区",
        "lng": 112.70788,
        "lat": 37.6978
    },
    {
        "name": "榆社县",
        "lng": 112.97558,
        "lat": 37.0721
    },
    {
        "name": "左权县",
        "lng": 113.37918,
        "lat": 37.08235
    },
    {
        "name": "和顺县",
        "lng": 113.56988,
        "lat": 37.32963
    },
    {
        "name": "昔阳县",
        "lng": 113.70517,
        "lat": 37.61863
    },
    {
        "name": "寿阳县",
        "lng": 113.17495,
        "lat": 37.88899
    },
    {
        "name": "太谷县",
        "lng": 112.55246,
        "lat": 37.42161
    },
    {
        "name": "祁县",
        "lng": 112.33358,
        "lat": 37.3579
    },
    {
        "name": "平遥县",
        "lng": 112.17553,
        "lat": 37.1892
    },
    {
        "name": "灵石县",
        "lng": 111.7774,
        "lat": 36.84814
    },
    {
        "name": "介休市",
        "lng": 111.91824,
        "lat": 37.02771
    },
    {
        "name": "运城市",
        "lng": 111.003957,
        "lat": 35.022778
    },
    {
        "name": "盐湖区",
        "lng": 110.99827,
        "lat": 35.0151
    },
    {
        "name": "临猗县",
        "lng": 110.77432,
        "lat": 35.14455
    },
    {
        "name": "万荣县",
        "lng": 110.83657,
        "lat": 35.41556
    },
    {
        "name": "闻喜县",
        "lng": 111.22265,
        "lat": 35.35553
    },
    {
        "name": "稷山县",
        "lng": 110.97924,
        "lat": 35.59993
    },
    {
        "name": "新绛县",
        "lng": 111.22509,
        "lat": 35.61566
    },
    {
        "name": "绛县",
        "lng": 111.56668,
        "lat": 35.49096
    },
    {
        "name": "垣曲县",
        "lng": 111.67166,
        "lat": 35.29923
    },
    {
        "name": "夏县",
        "lng": 111.21966,
        "lat": 35.14121
    },
    {
        "name": "平陆县",
        "lng": 111.21704,
        "lat": 34.83772
    },
    {
        "name": "芮城县",
        "lng": 110.69455,
        "lat": 34.69384
    },
    {
        "name": "永济市",
        "lng": 110.44537,
        "lat": 34.86556
    },
    {
        "name": "河津市",
        "lng": 110.7116,
        "lat": 35.59478
    },
    {
        "name": "忻州市",
        "lng": 112.733538,
        "lat": 38.41769
    },
    {
        "name": "忻府区",
        "lng": 112.74603,
        "lat": 38.40414
    },
    {
        "name": "定襄县",
        "lng": 112.95733,
        "lat": 38.47387
    },
    {
        "name": "五台县",
        "lng": 113.25256,
        "lat": 38.72774
    },
    {
        "name": "代县",
        "lng": 112.95913,
        "lat": 39.06717
    },
    {
        "name": "繁峙县",
        "lng": 113.26303,
        "lat": 39.18886
    },
    {
        "name": "宁武县",
        "lng": 112.30423,
        "lat": 39.00211
    },
    {
        "name": "静乐县",
        "lng": 111.94158,
        "lat": 38.3602
    },
    {
        "name": "神池县",
        "lng": 112.20541,
        "lat": 39.09
    },
    {
        "name": "五寨县",
        "lng": 111.8489,
        "lat": 38.90757
    },
    {
        "name": "岢岚县",
        "lng": 111.57388,
        "lat": 38.70452
    },
    {
        "name": "河曲县",
        "lng": 111.13821,
        "lat": 39.38439
    },
    {
        "name": "保德县",
        "lng": 111.08656,
        "lat": 39.02248
    },
    {
        "name": "偏关县",
        "lng": 111.50863,
        "lat": 39.43609
    },
    {
        "name": "原平市",
        "lng": 112.70584,
        "lat": 38.73181
    },
    {
        "name": "临汾市",
        "lng": 111.517973,
        "lat": 36.08415
    },
    {
        "name": "尧都区",
        "lng": 111.5787,
        "lat": 36.08298
    },
    {
        "name": "曲沃县",
        "lng": 111.47525,
        "lat": 35.64119
    },
    {
        "name": "翼城县",
        "lng": 111.7181,
        "lat": 35.73881
    },
    {
        "name": "襄汾县",
        "lng": 111.44204,
        "lat": 35.87711
    },
    {
        "name": "洪洞县",
        "lng": 111.67501,
        "lat": 36.25425
    },
    {
        "name": "古县",
        "lng": 111.92041,
        "lat": 36.26688
    },
    {
        "name": "安泽县",
        "lng": 112.24981,
        "lat": 36.14803
    },
    {
        "name": "浮山县",
        "lng": 111.84744,
        "lat": 35.96854
    },
    {
        "name": "吉县",
        "lng": 110.68148,
        "lat": 36.09873
    },
    {
        "name": "乡宁县",
        "lng": 110.84652,
        "lat": 35.97072
    },
    {
        "name": "大宁县",
        "lng": 110.75216,
        "lat": 36.46624
    },
    {
        "name": "隰县",
        "lng": 110.93881,
        "lat": 36.69258
    },
    {
        "name": "永和县",
        "lng": 110.63168,
        "lat": 36.7584
    },
    {
        "name": "蒲县",
        "lng": 111.09674,
        "lat": 36.41243
    },
    {
        "name": "汾西县",
        "lng": 111.56811,
        "lat": 36.65063
    },
    {
        "name": "侯马市",
        "lng": 111.37207,
        "lat": 35.61903
    },
    {
        "name": "霍州市",
        "lng": 111.755,
        "lat": 36.5638
    },
    {
        "name": "吕梁市",
        "lng": 111.134335,
        "lat": 37.524366
    },
    {
        "name": "离石区",
        "lng": 111.15059,
        "lat": 37.5177
    },
    {
        "name": "文水县",
        "lng": 112.02829,
        "lat": 37.43841
    },
    {
        "name": "交城县",
        "lng": 112.1585,
        "lat": 37.5512
    },
    {
        "name": "兴县",
        "lng": 111.12692,
        "lat": 38.46321
    },
    {
        "name": "临县",
        "lng": 110.99282,
        "lat": 37.95271
    },
    {
        "name": "柳林县",
        "lng": 110.88922,
        "lat": 37.42932
    },
    {
        "name": "石楼县",
        "lng": 110.8352,
        "lat": 36.99731
    },
    {
        "name": "岚县",
        "lng": 111.67627,
        "lat": 38.27874
    },
    {
        "name": "方山县",
        "lng": 111.24011,
        "lat": 37.88979
    },
    {
        "name": "中阳县",
        "lng": 111.1795,
        "lat": 37.35715
    },
    {
        "name": "交口县",
        "lng": 111.18103,
        "lat": 36.98213
    },
    {
        "name": "孝义市",
        "lng": 111.77362,
        "lat": 37.14414
    },
    {
        "name": "汾阳市",
        "lng": 111.7882,
        "lat": 37.26605
    },
    {
        "name": "内蒙古自治区",
        "lng": 111.670801,
        "lat": 40.818311
    },
    {
        "name": "呼和浩特市",
        "lng": 111.670801,
        "lat": 40.818311
    },
    {
        "name": "新城区",
        "lng": 111.66554,
        "lat": 40.85828
    },
    {
        "name": "回民区",
        "lng": 111.62402,
        "lat": 40.80827
    },
    {
        "name": "玉泉区",
        "lng": 111.67456,
        "lat": 40.75227
    },
    {
        "name": "赛罕区",
        "lng": 111.70224,
        "lat": 40.79207
    },
    {
        "name": "土默特左旗",
        "lng": 111.14898,
        "lat": 40.72229
    },
    {
        "name": "托克托县",
        "lng": 111.19101,
        "lat": 40.27492
    },
    {
        "name": "和林格尔县",
        "lng": 111.82205,
        "lat": 40.37892
    },
    {
        "name": "清水河县",
        "lng": 111.68316,
        "lat": 39.9097
    },
    {
        "name": "武川县",
        "lng": 111.45785,
        "lat": 41.09289
    },
    {
        "name": "包头市",
        "lng": 109.840405,
        "lat": 40.658168
    },
    {
        "name": "东河区",
        "lng": 110.0462,
        "lat": 40.58237
    },
    {
        "name": "昆都仑区",
        "lng": 109.83862,
        "lat": 40.64175
    },
    {
        "name": "青山区",
        "lng": 109.90131,
        "lat": 40.64329
    },
    {
        "name": "石拐区",
        "lng": 110.27322,
        "lat": 40.67297
    },
    {
        "name": "白云鄂博矿区",
        "lng": 109.97367,
        "lat": 41.76968
    },
    {
        "name": "九原区",
        "lng": 109.96496,
        "lat": 40.60554
    },
    {
        "name": "土默特右旗",
        "lng": 110.52417,
        "lat": 40.5688
    },
    {
        "name": "固阳县",
        "lng": 110.06372,
        "lat": 41.01851
    },
    {
        "name": "达尔罕茂明安联合旗",
        "lng": 110.43258,
        "lat": 41.69875
    },
    {
        "name": "乌海市",
        "lng": 106.825563,
        "lat": 39.673734
    },
    {
        "name": "海勃湾区",
        "lng": 106.8222,
        "lat": 39.66955
    },
    {
        "name": "海南区",
        "lng": 106.88656,
        "lat": 39.44128
    },
    {
        "name": "乌达区",
        "lng": 106.72723,
        "lat": 39.505
    },
    {
        "name": "赤峰市",
        "lng": 118.956806,
        "lat": 42.275317
    },
    {
        "name": "红山区",
        "lng": 118.95755,
        "lat": 42.24312
    },
    {
        "name": "元宝山区",
        "lng": 119.28921,
        "lat": 42.04005
    },
    {
        "name": "松山区",
        "lng": 118.9328,
        "lat": 42.28613
    },
    {
        "name": "阿鲁科尔沁旗",
        "lng": 120.06527,
        "lat": 43.87988
    },
    {
        "name": "巴林左旗",
        "lng": 119.38012,
        "lat": 43.97031
    },
    {
        "name": "巴林右旗",
        "lng": 118.66461,
        "lat": 43.53387
    },
    {
        "name": "林西县",
        "lng": 118.04733,
        "lat": 43.61165
    },
    {
        "name": "克什克腾旗",
        "lng": 117.54562,
        "lat": 43.26501
    },
    {
        "name": "翁牛特旗",
        "lng": 119.03042,
        "lat": 42.93147
    },
    {
        "name": "喀喇沁旗",
        "lng": 118.70144,
        "lat": 41.92917
    },
    {
        "name": "宁城县",
        "lng": 119.34375,
        "lat": 41.59661
    },
    {
        "name": "敖汉旗",
        "lng": 119.92163,
        "lat": 42.29071
    },
    {
        "name": "通辽市",
        "lng": 122.263119,
        "lat": 43.617429
    },
    {
        "name": "科尔沁区",
        "lng": 122.25573,
        "lat": 43.62257
    },
    {
        "name": "科尔沁左翼中旗",
        "lng": 123.31912,
        "lat": 44.13014
    },
    {
        "name": "科尔沁左翼后旗",
        "lng": 122.35745,
        "lat": 42.94897
    },
    {
        "name": "开鲁县",
        "lng": 121.31884,
        "lat": 43.60003
    },
    {
        "name": "库伦旗",
        "lng": 121.776,
        "lat": 42.72998
    },
    {
        "name": "奈曼旗",
        "lng": 120.66348,
        "lat": 42.84527
    },
    {
        "name": "扎鲁特旗",
        "lng": 120.91507,
        "lat": 44.55592
    },
    {
        "name": "霍林郭勒市",
        "lng": 119.65429,
        "lat": 45.53454
    },
    {
        "name": "鄂尔多斯市",
        "lng": 109.99029,
        "lat": 39.817179
    },
    {
        "name": "东胜区",
        "lng": 109.96289,
        "lat": 39.82236
    },
    {
        "name": "达拉特旗",
        "lng": 110.03317,
        "lat": 40.4001
    },
    {
        "name": "准格尔旗",
        "lng": 111.23645,
        "lat": 39.86783
    },
    {
        "name": "鄂托克前旗",
        "lng": 107.48403,
        "lat": 38.18396
    },
    {
        "name": "鄂托克旗",
        "lng": 107.98226,
        "lat": 39.09456
    },
    {
        "name": "杭锦旗",
        "lng": 108.72934,
        "lat": 39.84023
    },
    {
        "name": "乌审旗",
        "lng": 108.8461,
        "lat": 38.59092
    },
    {
        "name": "伊金霍洛旗",
        "lng": 109.74908,
        "lat": 39.57393
    },
    {
        "name": "呼伦贝尔市",
        "lng": 119.758168,
        "lat": 49.215333
    },
    {
        "name": "海拉尔区",
        "lng": 119.7364,
        "lat": 49.2122
    },
    {
        "name": "扎赉诺尔区",
        "lng": 117.792702,
        "lat": 49.486943
    },
    {
        "name": "阿荣旗",
        "lng": 123.45941,
        "lat": 48.12581
    },
    {
        "name": "莫力达瓦达斡尔族自治旗",
        "lng": 124.51498,
        "lat": 48.48055
    },
    {
        "name": "鄂伦春自治旗",
        "lng": 123.72604,
        "lat": 50.59777
    },
    {
        "name": "鄂温克族自治旗",
        "lng": 119.7565,
        "lat": 49.14284
    },
    {
        "name": "陈巴尔虎旗",
        "lng": 119.42434,
        "lat": 49.32684
    },
    {
        "name": "新巴尔虎左旗",
        "lng": 118.26989,
        "lat": 48.21842
    },
    {
        "name": "新巴尔虎右旗",
        "lng": 116.82366,
        "lat": 48.66473
    },
    {
        "name": "满洲里市",
        "lng": 117.47946,
        "lat": 49.58272
    },
    {
        "name": "牙克石市",
        "lng": 120.7117,
        "lat": 49.2856
    },
    {
        "name": "扎兰屯市",
        "lng": 122.73757,
        "lat": 48.01363
    },
    {
        "name": "额尔古纳市",
        "lng": 120.19094,
        "lat": 50.24249
    },
    {
        "name": "根河市",
        "lng": 121.52197,
        "lat": 50.77996
    },
    {
        "name": "巴彦淖尔市",
        "lng": 107.416959,
        "lat": 40.757402
    },
    {
        "name": "临河区",
        "lng": 107.42668,
        "lat": 40.75827
    },
    {
        "name": "五原县",
        "lng": 108.26916,
        "lat": 41.09631
    },
    {
        "name": "磴口县",
        "lng": 107.00936,
        "lat": 40.33062
    },
    {
        "name": "乌拉特前旗",
        "lng": 108.65219,
        "lat": 40.73649
    },
    {
        "name": "乌拉特中旗",
        "lng": 108.52587,
        "lat": 41.56789
    },
    {
        "name": "乌拉特后旗",
        "lng": 106.98971,
        "lat": 41.43151
    },
    {
        "name": "杭锦后旗",
        "lng": 107.15133,
        "lat": 40.88627
    },
    {
        "name": "乌兰察布市",
        "lng": 113.114543,
        "lat": 41.034126
    },
    {
        "name": "集宁区",
        "lng": 113.11452,
        "lat": 41.0353
    },
    {
        "name": "卓资县",
        "lng": 112.57757,
        "lat": 40.89414
    },
    {
        "name": "化德县",
        "lng": 114.01071,
        "lat": 41.90433
    },
    {
        "name": "商都县",
        "lng": 113.57772,
        "lat": 41.56213
    },
    {
        "name": "兴和县",
        "lng": 113.83395,
        "lat": 40.87186
    },
    {
        "name": "凉城县",
        "lng": 112.49569,
        "lat": 40.53346
    },
    {
        "name": "察哈尔右翼前旗",
        "lng": 113.22131,
        "lat": 40.7788
    },
    {
        "name": "察哈尔右翼中旗",
        "lng": 112.63537,
        "lat": 41.27742
    },
    {
        "name": "察哈尔右翼后旗",
        "lng": 113.19216,
        "lat": 41.43554
    },
    {
        "name": "四子王旗",
        "lng": 111.70654,
        "lat": 41.53312
    },
    {
        "name": "丰镇市",
        "lng": 113.10983,
        "lat": 40.4369
    },
    {
        "name": "兴安盟",
        "lng": 122.070317,
        "lat": 46.076268
    },
    {
        "name": "乌兰浩特市",
        "lng": 122.06378,
        "lat": 46.06235
    },
    {
        "name": "阿尔山市",
        "lng": 119.94317,
        "lat": 47.17716
    },
    {
        "name": "科尔沁右翼前旗",
        "lng": 121.95269,
        "lat": 46.0795
    },
    {
        "name": "科尔沁右翼中旗",
        "lng": 121.46807,
        "lat": 45.05605
    },
    {
        "name": "扎赉特旗",
        "lng": 122.91229,
        "lat": 46.7267
    },
    {
        "name": "突泉县",
        "lng": 121.59396,
        "lat": 45.38187
    },
    {
        "name": "锡林郭勒盟",
        "lng": 116.090996,
        "lat": 43.944018
    },
    {
        "name": "二连浩特市",
        "lng": 111.98297,
        "lat": 43.65303
    },
    {
        "name": "锡林浩特市",
        "lng": 116.08603,
        "lat": 43.93341
    },
    {
        "name": "阿巴嘎旗",
        "lng": 114.96826,
        "lat": 44.02174
    },
    {
        "name": "苏尼特左旗",
        "lng": 113.6506,
        "lat": 43.85687
    },
    {
        "name": "苏尼特右旗",
        "lng": 112.65741,
        "lat": 42.7469
    },
    {
        "name": "东乌珠穆沁旗",
        "lng": 116.97293,
        "lat": 45.51108
    },
    {
        "name": "西乌珠穆沁旗",
        "lng": 117.60983,
        "lat": 44.59623
    },
    {
        "name": "太仆寺旗",
        "lng": 115.28302,
        "lat": 41.87727
    },
    {
        "name": "镶黄旗",
        "lng": 113.84472,
        "lat": 42.23927
    },
    {
        "name": "正镶白旗",
        "lng": 115.00067,
        "lat": 42.30712
    },
    {
        "name": "正蓝旗",
        "lng": 116.00363,
        "lat": 42.25229
    },
    {
        "name": "多伦县",
        "lng": 116.48565,
        "lat": 42.203
    },
    {
        "name": "阿拉善盟",
        "lng": 105.706422,
        "lat": 38.844814
    },
    {
        "name": "阿拉善左旗",
        "lng": 105.67532,
        "lat": 38.8293
    },
    {
        "name": "阿拉善右旗",
        "lng": 101.66705,
        "lat": 39.21533
    },
    {
        "name": "额济纳旗",
        "lng": 101.06887,
        "lat": 41.96755
    },
    {
        "name": "辽宁省",
        "lng": 123.429096,
        "lat": 41.796767
    },
    {
        "name": "沈阳市",
        "lng": 123.429096,
        "lat": 41.796767
    },
    {
        "name": "和平区",
        "lng": 123.4204,
        "lat": 41.78997
    },
    {
        "name": "沈河区",
        "lng": 123.45871,
        "lat": 41.79625
    },
    {
        "name": "大东区",
        "lng": 123.46997,
        "lat": 41.80539
    },
    {
        "name": "皇姑区",
        "lng": 123.42527,
        "lat": 41.82035
    },
    {
        "name": "铁西区",
        "lng": 123.37675,
        "lat": 41.80269
    },
    {
        "name": "苏家屯区",
        "lng": 123.34405,
        "lat": 41.66475
    },
    {
        "name": "浑南区",
        "lng": 123.457707,
        "lat": 41.719450
    },
    {
        "name": "沈北新区",
        "lng": 123.52658,
        "lat": 42.05297
    },
    {
        "name": "于洪区",
        "lng": 123.30807,
        "lat": 41.794
    },
    {
        "name": "辽中县",
        "lng": 122.72659,
        "lat": 41.51302
    },
    {
        "name": "康平县",
        "lng": 123.35446,
        "lat": 42.75081
    },
    {
        "name": "法库县",
        "lng": 123.41214,
        "lat": 42.50608
    },
    {
        "name": "新民市",
        "lng": 122.82867,
        "lat": 41.99847
    },
    {
        "name": "大连市",
        "lng": 121.618622,
        "lat": 38.91459
    },
    {
        "name": "中山区",
        "lng": 121.64465,
        "lat": 38.91859
    },
    {
        "name": "西岗区",
        "lng": 121.61238,
        "lat": 38.91469
    },
    {
        "name": "沙河口区",
        "lng": 121.58017,
        "lat": 38.90536
    },
    {
        "name": "甘井子区",
        "lng": 121.56567,
        "lat": 38.95017
    },
    {
        "name": "旅顺口区",
        "lng": 121.26202,
        "lat": 38.85125
    },
    {
        "name": "金州区",
        "lng": 121.71893,
        "lat": 39.1004
    },
    {
        "name": "长海县",
        "lng": 122.58859,
        "lat": 39.27274
    },
    {
        "name": "瓦房店市",
        "lng": 121.98104,
        "lat": 39.62843
    },
    {
        "name": "普兰店市",
        "lng": 121.96316,
        "lat": 39.39465
    },
    {
        "name": "庄河市",
        "lng": 122.96725,
        "lat": 39.68815
    },
    {
        "name": "鞍山市",
        "lng": 122.995632,
        "lat": 41.110626
    },
    {
        "name": "铁东区",
        "lng": 122.99085,
        "lat": 41.08975
    },
    {
        "name": "铁西区",
        "lng": 122.96967,
        "lat": 41.11977
    },
    {
        "name": "立山区",
        "lng": 123.02948,
        "lat": 41.15008
    },
    {
        "name": "千山区",
        "lng": 122.96048,
        "lat": 41.07507
    },
    {
        "name": "台安县",
        "lng": 122.43585,
        "lat": 41.41265
    },
    {
        "name": "岫岩满族自治县",
        "lng": 123.28875,
        "lat": 40.27996
    },
    {
        "name": "海城市",
        "lng": 122.68457,
        "lat": 40.88142
    },
    {
        "name": "抚顺市",
        "lng": 123.921109,
        "lat": 41.875956
    },
    {
        "name": "新抚区",
        "lng": 123.91264,
        "lat": 41.86205
    },
    {
        "name": "东洲区",
        "lng": 124.03759,
        "lat": 41.8519
    },
    {
        "name": "望花区",
        "lng": 123.78283,
        "lat": 41.85532
    },
    {
        "name": "顺城区",
        "lng": 123.94506,
        "lat": 41.88321
    },
    {
        "name": "抚顺县",
        "lng": 124.17755,
        "lat": 41.71217
    },
    {
        "name": "新宾满族自治县",
        "lng": 125.04049,
        "lat": 41.73409
    },
    {
        "name": "清原满族自治县",
        "lng": 124.92807,
        "lat": 42.10221
    },
    {
        "name": "本溪市",
        "lng": 123.770519,
        "lat": 41.297909
    },
    {
        "name": "平山区",
        "lng": 123.76892,
        "lat": 41.2997
    },
    {
        "name": "溪湖区",
        "lng": 123.76764,
        "lat": 41.32921
    },
    {
        "name": "明山区",
        "lng": 123.81746,
        "lat": 41.30827
    },
    {
        "name": "南芬区",
        "lng": 123.74523,
        "lat": 41.1006
    },
    {
        "name": "本溪满族自治县",
        "lng": 124.12741,
        "lat": 41.30059
    },
    {
        "name": "桓仁满族自治县",
        "lng": 125.36062,
        "lat": 41.26798
    },
    {
        "name": "丹东市",
        "lng": 124.383044,
        "lat": 40.124296
    },
    {
        "name": "元宝区",
        "lng": 124.39575,
        "lat": 40.13651
    },
    {
        "name": "振兴区",
        "lng": 124.36035,
        "lat": 40.10489
    },
    {
        "name": "振安区",
        "lng": 124.42816,
        "lat": 40.15826
    },
    {
        "name": "宽甸满族自治县",
        "lng": 124.78247,
        "lat": 40.73187
    },
    {
        "name": "东港市",
        "lng": 124.16287,
        "lat": 39.86256
    },
    {
        "name": "凤城市",
        "lng": 124.06671,
        "lat": 40.45302
    },
    {
        "name": "锦州市",
        "lng": 121.135742,
        "lat": 41.119269
    },
    {
        "name": "古塔区",
        "lng": 121.12832,
        "lat": 41.11725
    },
    {
        "name": "凌河区",
        "lng": 121.15089,
        "lat": 41.11496
    },
    {
        "name": "太和区",
        "lng": 121.10354,
        "lat": 41.10929
    },
    {
        "name": "黑山县",
        "lng": 122.12081,
        "lat": 41.69417
    },
    {
        "name": "义县",
        "lng": 121.24035,
        "lat": 41.53458
    },
    {
        "name": "凌海市",
        "lng": 121.35705,
        "lat": 41.1737
    },
    {
        "name": "北镇市",
        "lng": 121.79858,
        "lat": 41.59537
    },
    {
        "name": "营口市",
        "lng": 122.235151,
        "lat": 40.667432
    },
    {
        "name": "站前区",
        "lng": 122.25896,
        "lat": 40.67266
    },
    {
        "name": "西市区",
        "lng": 122.20641,
        "lat": 40.6664
    },
    {
        "name": "鲅鱼圈区",
        "lng": 122.13266,
        "lat": 40.26865
    },
    {
        "name": "老边区",
        "lng": 122.37996,
        "lat": 40.6803
    },
    {
        "name": "盖州市",
        "lng": 122.35464,
        "lat": 40.40446
    },
    {
        "name": "大石桥市",
        "lng": 122.50927,
        "lat": 40.64567
    },
    {
        "name": "阜新市",
        "lng": 121.648962,
        "lat": 42.011796
    },
    {
        "name": "海州区",
        "lng": 121.65626,
        "lat": 42.01336
    },
    {
        "name": "新邱区",
        "lng": 121.79251,
        "lat": 42.09181
    },
    {
        "name": "太平区",
        "lng": 121.67865,
        "lat": 42.01065
    },
    {
        "name": "清河门区",
        "lng": 121.4161,
        "lat": 41.78309
    },
    {
        "name": "细河区",
        "lng": 121.68013,
        "lat": 42.02533
    },
    {
        "name": "阜新蒙古族自治县",
        "lng": 121.75787,
        "lat": 42.0651
    },
    {
        "name": "彰武县",
        "lng": 122.54022,
        "lat": 42.38625
    },
    {
        "name": "辽阳市",
        "lng": 123.18152,
        "lat": 41.269402
    },
    {
        "name": "白塔区",
        "lng": 123.1747,
        "lat": 41.27025
    },
    {
        "name": "文圣区",
        "lng": 123.18521,
        "lat": 41.26267
    },
    {
        "name": "宏伟区",
        "lng": 123.1929,
        "lat": 41.21852
    },
    {
        "name": "弓长岭区",
        "lng": 123.41963,
        "lat": 41.15181
    },
    {
        "name": "太子河区",
        "lng": 123.18182,
        "lat": 41.25337
    },
    {
        "name": "辽阳县",
        "lng": 123.10574,
        "lat": 41.20542
    },
    {
        "name": "灯塔市",
        "lng": 123.33926,
        "lat": 41.42612
    },
    {
        "name": "盘锦市",
        "lng": 122.06957,
        "lat": 41.124484
    },
    {
        "name": "双台子区",
        "lng": 122.06011,
        "lat": 41.1906
    },
    {
        "name": "兴隆台区",
        "lng": 122.07529,
        "lat": 41.12402
    },
    {
        "name": "大洼县",
        "lng": 122.08239,
        "lat": 41.00244
    },
    {
        "name": "盘山县",
        "lng": 121.99777,
        "lat": 41.23805
    },
    {
        "name": "铁岭市",
        "lng": 123.844279,
        "lat": 42.290585
    },
    {
        "name": "银州区",
        "lng": 123.8573,
        "lat": 42.29507
    },
    {
        "name": "清河区",
        "lng": 124.15911,
        "lat": 42.54679
    },
    {
        "name": "铁岭县",
        "lng": 123.77325,
        "lat": 42.22498
    },
    {
        "name": "西丰县",
        "lng": 124.7304,
        "lat": 42.73756
    },
    {
        "name": "昌图县",
        "lng": 124.11206,
        "lat": 42.78428
    },
    {
        "name": "调兵山市",
        "lng": 123.56689,
        "lat": 42.4675
    },
    {
        "name": "开原市",
        "lng": 124.03945,
        "lat": 42.54585
    },
    {
        "name": "朝阳市",
        "lng": 120.451176,
        "lat": 41.576758
    },
    {
        "name": "双塔区",
        "lng": 120.45385,
        "lat": 41.566
    },
    {
        "name": "龙城区",
        "lng": 120.43719,
        "lat": 41.59264
    },
    {
        "name": "朝阳县",
        "lng": 120.17401,
        "lat": 41.4324
    },
    {
        "name": "建平县",
        "lng": 119.64392,
        "lat": 41.40315
    },
    {
        "name": "喀喇沁左翼蒙古族自治县",
        "lng": 119.74185,
        "lat": 41.12801
    },
    {
        "name": "北票市",
        "lng": 120.76977,
        "lat": 41.80196
    },
    {
        "name": "凌源市",
        "lng": 119.40148,
        "lat": 41.24558
    },
    {
        "name": "葫芦岛市",
        "lng": 120.856394,
        "lat": 40.755572
    },
    {
        "name": "连山区",
        "lng": 120.86393,
        "lat": 40.75554
    },
    {
        "name": "龙港区",
        "lng": 120.94866,
        "lat": 40.71919
    },
    {
        "name": "南票区",
        "lng": 120.74978,
        "lat": 41.10707
    },
    {
        "name": "绥中县",
        "lng": 120.34451,
        "lat": 40.32552
    },
    {
        "name": "建昌县",
        "lng": 119.8377,
        "lat": 40.82448
    },
    {
        "name": "兴城市",
        "lng": 120.72537,
        "lat": 40.61492
    },
    {
        "name": "金普新区",
        "lng": 121.789627,
        "lat": 39.055451
    },
    {
        "name": "金州新区",
        "lng": 121.784821,
        "lat": 39.052252
    },
    {
        "name": "普湾新区",
        "lng": 121.812812,
        "lat": 39.330093
    },
    {
        "name": "保税区",
        "lng": 121.94289,
        "lat": 39.224614
    },
    {
        "name": "吉林省",
        "lng": 125.3245,
        "lat": 43.886841
    },
    {
        "name": "长春市",
        "lng": 125.3245,
        "lat": 43.886841
    },
    {
        "name": "南关区",
        "lng": 125.35035,
        "lat": 43.86401
    },
    {
        "name": "宽城区",
        "lng": 125.32635,
        "lat": 43.90182
    },
    {
        "name": "朝阳区",
        "lng": 125.2883,
        "lat": 43.83339
    },
    {
        "name": "二道区",
        "lng": 125.37429,
        "lat": 43.86501
    },
    {
        "name": "绿园区",
        "lng": 125.25582,
        "lat": 43.88045
    },
    {
        "name": "双阳区",
        "lng": 125.65631,
        "lat": 43.52803
    },
    {
        "name": "九台区",
        "lng": 125.8395,
        "lat": 44.15163
    },
    {
        "name": "农安县",
        "lng": 125.18481,
        "lat": 44.43265
    },
    {
        "name": "榆树市",
        "lng": 126.55688,
        "lat": 44.82523
    },
    {
        "name": "德惠市",
        "lng": 125.70538,
        "lat": 44.53719
    },
    {
        "name": "吉林市",
        "lng": 126.55302,
        "lat": 43.843577
    },
    {
        "name": "昌邑区",
        "lng": 126.57424,
        "lat": 43.88183
    },
    {
        "name": "龙潭区",
        "lng": 126.56213,
        "lat": 43.91054
    },
    {
        "name": "船营区",
        "lng": 126.54096,
        "lat": 43.83344
    },
    {
        "name": "丰满区",
        "lng": 126.56237,
        "lat": 43.82236
    },
    {
        "name": "永吉县",
        "lng": 126.4963,
        "lat": 43.67197
    },
    {
        "name": "蛟河市",
        "lng": 127.34426,
        "lat": 43.72696
    },
    {
        "name": "桦甸市",
        "lng": 126.74624,
        "lat": 42.97206
    },
    {
        "name": "舒兰市",
        "lng": 126.9653,
        "lat": 44.40582
    },
    {
        "name": "磐石市",
        "lng": 126.0625,
        "lat": 42.94628
    },
    {
        "name": "四平市",
        "lng": 124.370785,
        "lat": 43.170344
    },
    {
        "name": "铁西区",
        "lng": 124.37369,
        "lat": 43.17456
    },
    {
        "name": "铁东区",
        "lng": 124.40976,
        "lat": 43.16241
    },
    {
        "name": "梨树县",
        "lng": 124.33563,
        "lat": 43.30717
    },
    {
        "name": "伊通满族自治县",
        "lng": 125.30596,
        "lat": 43.34434
    },
    {
        "name": "公主岭市",
        "lng": 124.82266,
        "lat": 43.50453
    },
    {
        "name": "双辽市",
        "lng": 123.50106,
        "lat": 43.52099
    },
    {
        "name": "辽源市",
        "lng": 125.145349,
        "lat": 42.902692
    },
    {
        "name": "龙山区",
        "lng": 125.13641,
        "lat": 42.89714
    },
    {
        "name": "西安区",
        "lng": 125.14904,
        "lat": 42.927
    },
    {
        "name": "东丰县",
        "lng": 125.53244,
        "lat": 42.6783
    },
    {
        "name": "东辽县",
        "lng": 124.98596,
        "lat": 42.92492
    },
    {
        "name": "通化市",
        "lng": 125.936501,
        "lat": 41.721177
    },
    {
        "name": "东昌区",
        "lng": 125.9551,
        "lat": 41.72849
    },
    {
        "name": "二道江区",
        "lng": 126.04257,
        "lat": 41.7741
    },
    {
        "name": "通化县",
        "lng": 125.75936,
        "lat": 41.67928
    },
    {
        "name": "辉南县",
        "lng": 126.04684,
        "lat": 42.68497
    },
    {
        "name": "柳河县",
        "lng": 125.74475,
        "lat": 42.28468
    },
    {
        "name": "梅河口市",
        "lng": 125.71041,
        "lat": 42.53828
    },
    {
        "name": "集安市",
        "lng": 126.18829,
        "lat": 41.12268
    },
    {
        "name": "白山市",
        "lng": 126.427839,
        "lat": 41.942505
    },
    {
        "name": "浑江区",
        "lng": 126.422342,
        "lat": 41.945656
    },
    {
        "name": "江源区",
        "lng": 126.59079,
        "lat": 42.05664
    },
    {
        "name": "抚松县",
        "lng": 127.2803,
        "lat": 42.34198
    },
    {
        "name": "靖宇县",
        "lng": 126.81308,
        "lat": 42.38863
    },
    {
        "name": "长白朝鲜族自治县",
        "lng": 128.20047,
        "lat": 41.41996
    },
    {
        "name": "临江市",
        "lng": 126.91751,
        "lat": 41.81142
    },
    {
        "name": "松原市",
        "lng": 124.823608,
        "lat": 45.118243
    },
    {
        "name": "宁江区",
        "lng": 124.81689,
        "lat": 45.17175
    },
    {
        "name": "前郭尔罗斯蒙古族自治县",
        "lng": 124.82351,
        "lat": 45.11726
    },
    {
        "name": "长岭县",
        "lng": 123.96725,
        "lat": 44.27581
    },
    {
        "name": "乾安县",
        "lng": 124.02737,
        "lat": 45.01068
    },
    {
        "name": "扶余市",
        "lng": 126.042758,
        "lat": 44.986199
    },
    {
        "name": "白城市",
        "lng": 122.841114,
        "lat": 45.619026
    },
    {
        "name": "洮北区",
        "lng": 122.85104,
        "lat": 45.62167
    },
    {
        "name": "镇赉县",
        "lng": 123.19924,
        "lat": 45.84779
    },
    {
        "name": "通榆县",
        "lng": 123.08761,
        "lat": 44.81388
    },
    {
        "name": "洮南市",
        "lng": 122.78772,
        "lat": 45.33502
    },
    {
        "name": "大安市",
        "lng": 124.29519,
        "lat": 45.50846
    },
    {
        "name": "延边朝鲜族自治州",
        "lng": 129.513228,
        "lat": 42.904823
    },
    {
        "name": "延吉市",
        "lng": 129.51357,
        "lat": 42.90682
    },
    {
        "name": "图们市",
        "lng": 129.84381,
        "lat": 42.96801
    },
    {
        "name": "敦化市",
        "lng": 128.23242,
        "lat": 43.37304
    },
    {
        "name": "珲春市",
        "lng": 130.36572,
        "lat": 42.86242
    },
    {
        "name": "龙井市",
        "lng": 129.42584,
        "lat": 42.76804
    },
    {
        "name": "和龙市",
        "lng": 129.01077,
        "lat": 42.5464
    },
    {
        "name": "汪清县",
        "lng": 129.77121,
        "lat": 43.31278
    },
    {
        "name": "安图县",
        "lng": 128.90625,
        "lat": 43.11533
    },
    {
        "name": "黑龙江省",
        "lng": 126.642464,
        "lat": 45.756967
    },
    {
        "name": "哈尔滨市",
        "lng": 126.642464,
        "lat": 45.756967
    },
    {
        "name": "道里区",
        "lng": 126.61705,
        "lat": 45.75586
    },
    {
        "name": "南岗区",
        "lng": 126.66854,
        "lat": 45.75996
    },
    {
        "name": "道外区",
        "lng": 126.64938,
        "lat": 45.79187
    },
    {
        "name": "平房区",
        "lng": 126.63729,
        "lat": 45.59777
    },
    {
        "name": "松北区",
        "lng": 126.56276,
        "lat": 45.80831
    },
    {
        "name": "香坊区",
        "lng": 126.67968,
        "lat": 45.72383
    },
    {
        "name": "呼兰区",
        "lng": 126.58792,
        "lat": 45.88895
    },
    {
        "name": "阿城区",
        "lng": 126.97525,
        "lat": 45.54144
    },
    {
        "name": "双城区",
        "lng": 126.308784,
        "lat": 45.377942
    },
    {
        "name": "依兰县",
        "lng": 129.56817,
        "lat": 46.3247
    },
    {
        "name": "方正县",
        "lng": 128.82952,
        "lat": 45.85162
    },
    {
        "name": "宾县",
        "lng": 127.48675,
        "lat": 45.75504
    },
    {
        "name": "巴彦县",
        "lng": 127.40799,
        "lat": 46.08148
    },
    {
        "name": "木兰县",
        "lng": 128.0448,
        "lat": 45.94944
    },
    {
        "name": "通河县",
        "lng": 128.74603,
        "lat": 45.99007
    },
    {
        "name": "延寿县",
        "lng": 128.33419,
        "lat": 45.4554
    },
    {
        "name": "尚志市",
        "lng": 127.96191,
        "lat": 45.21736
    },
    {
        "name": "五常市",
        "lng": 127.16751,
        "lat": 44.93184
    },
    {
        "name": "齐齐哈尔市",
        "lng": 123.953486,
        "lat": 47.348079
    },
    {
        "name": "龙沙区",
        "lng": 123.95752,
        "lat": 47.31776
    },
    {
        "name": "建华区",
        "lng": 124.0133,
        "lat": 47.36718
    },
    {
        "name": "铁锋区",
        "lng": 123.97821,
        "lat": 47.34075
    },
    {
        "name": "昂昂溪区",
        "lng": 123.82229,
        "lat": 47.15513
    },
    {
        "name": "富拉尔基区",
        "lng": 123.62918,
        "lat": 47.20884
    },
    {
        "name": "碾子山区",
        "lng": 122.88183,
        "lat": 47.51662
    },
    {
        "name": "梅里斯达斡尔族区",
        "lng": 123.75274,
        "lat": 47.30946
    },
    {
        "name": "龙江县",
        "lng": 123.20532,
        "lat": 47.33868
    },
    {
        "name": "依安县",
        "lng": 125.30896,
        "lat": 47.8931
    },
    {
        "name": "泰来县",
        "lng": 123.42285,
        "lat": 46.39386
    },
    {
        "name": "甘南县",
        "lng": 123.50317,
        "lat": 47.92437
    },
    {
        "name": "富裕县",
        "lng": 124.47457,
        "lat": 47.77431
    },
    {
        "name": "克山县",
        "lng": 125.87396,
        "lat": 48.03265
    },
    {
        "name": "克东县",
        "lng": 126.24917,
        "lat": 48.03828
    },
    {
        "name": "拜泉县",
        "lng": 126.09167,
        "lat": 47.60817
    },
    {
        "name": "讷河市",
        "lng": 124.87713,
        "lat": 48.48388
    },
    {
        "name": "鸡西市",
        "lng": 130.975966,
        "lat": 45.300046
    },
    {
        "name": "鸡冠区",
        "lng": 130.98139,
        "lat": 45.30396
    },
    {
        "name": "恒山区",
        "lng": 130.90493,
        "lat": 45.21071
    },
    {
        "name": "滴道区",
        "lng": 130.84841,
        "lat": 45.35109
    },
    {
        "name": "梨树区",
        "lng": 130.69848,
        "lat": 45.09037
    },
    {
        "name": "城子河区",
        "lng": 131.01132,
        "lat": 45.33689
    },
    {
        "name": "麻山区",
        "lng": 130.47811,
        "lat": 45.21209
    },
    {
        "name": "鸡东县",
        "lng": 131.12423,
        "lat": 45.26025
    },
    {
        "name": "虎林市",
        "lng": 132.93679,
        "lat": 45.76291
    },
    {
        "name": "密山市",
        "lng": 131.84625,
        "lat": 45.5297
    },
    {
        "name": "鹤岗市",
        "lng": 130.277487,
        "lat": 47.332085
    },
    {
        "name": "向阳区",
        "lng": 130.2943,
        "lat": 47.34247
    },
    {
        "name": "工农区",
        "lng": 130.27468,
        "lat": 47.31869
    },
    {
        "name": "南山区",
        "lng": 130.27676,
        "lat": 47.31404
    },
    {
        "name": "兴安区",
        "lng": 130.23965,
        "lat": 47.2526
    },
    {
        "name": "东山区",
        "lng": 130.31706,
        "lat": 47.33853
    },
    {
        "name": "兴山区",
        "lng": 130.29271,
        "lat": 47.35776
    },
    {
        "name": "萝北县",
        "lng": 130.83346,
        "lat": 47.57959
    },
    {
        "name": "绥滨县",
        "lng": 131.86029,
        "lat": 47.2903
    },
    {
        "name": "双鸭山市",
        "lng": 131.157304,
        "lat": 46.643442
    },
    {
        "name": "尖山区",
        "lng": 131.15841,
        "lat": 46.64635
    },
    {
        "name": "岭东区",
        "lng": 131.16473,
        "lat": 46.59043
    },
    {
        "name": "四方台区",
        "lng": 131.33593,
        "lat": 46.59499
    },
    {
        "name": "宝山区",
        "lng": 131.4016,
        "lat": 46.57718
    },
    {
        "name": "集贤县",
        "lng": 131.14053,
        "lat": 46.72678
    },
    {
        "name": "友谊县",
        "lng": 131.80789,
        "lat": 46.76739
    },
    {
        "name": "宝清县",
        "lng": 132.19695,
        "lat": 46.32716
    },
    {
        "name": "饶河县",
        "lng": 134.01986,
        "lat": 46.79899
    },
    {
        "name": "大庆市",
        "lng": 125.11272,
        "lat": 46.590734
    },
    {
        "name": "萨尔图区",
        "lng": 125.08792,
        "lat": 46.59359
    },
    {
        "name": "龙凤区",
        "lng": 125.11657,
        "lat": 46.53273
    },
    {
        "name": "让胡路区",
        "lng": 124.87075,
        "lat": 46.6522
    },
    {
        "name": "红岗区",
        "lng": 124.89248,
        "lat": 46.40128
    },
    {
        "name": "大同区",
        "lng": 124.81591,
        "lat": 46.03295
    },
    {
        "name": "肇州县",
        "lng": 125.27059,
        "lat": 45.70414
    },
    {
        "name": "肇源县",
        "lng": 125.08456,
        "lat": 45.52032
    },
    {
        "name": "林甸县",
        "lng": 124.87564,
        "lat": 47.18601
    },
    {
        "name": "杜尔伯特蒙古族自治县",
        "lng": 124.44937,
        "lat": 46.86507
    },
    {
        "name": "伊春市",
        "lng": 128.899396,
        "lat": 47.724775
    },
    {
        "name": "伊春区",
        "lng": 128.90752,
        "lat": 47.728
    },
    {
        "name": "南岔区",
        "lng": 129.28362,
        "lat": 47.13897
    },
    {
        "name": "友好区",
        "lng": 128.84039,
        "lat": 47.85371
    },
    {
        "name": "西林区",
        "lng": 129.31201,
        "lat": 47.48103
    },
    {
        "name": "翠峦区",
        "lng": 128.66729,
        "lat": 47.72503
    },
    {
        "name": "新青区",
        "lng": 129.53653,
        "lat": 48.29067
    },
    {
        "name": "美溪区",
        "lng": 129.13708,
        "lat": 47.63513
    },
    {
        "name": "金山屯区",
        "lng": 129.43768,
        "lat": 47.41349
    },
    {
        "name": "五营区",
        "lng": 129.24545,
        "lat": 48.10791
    },
    {
        "name": "乌马河区",
        "lng": 128.79672,
        "lat": 47.728
    },
    {
        "name": "汤旺河区",
        "lng": 129.57226,
        "lat": 48.45182
    },
    {
        "name": "带岭区",
        "lng": 129.02352,
        "lat": 47.02553
    },
    {
        "name": "乌伊岭区",
        "lng": 129.43981,
        "lat": 48.59602
    },
    {
        "name": "红星区",
        "lng": 129.3887,
        "lat": 48.23944
    },
    {
        "name": "上甘岭区",
        "lng": 129.02447,
        "lat": 47.97522
    },
    {
        "name": "嘉荫县",
        "lng": 130.39825,
        "lat": 48.8917
    },
    {
        "name": "铁力市",
        "lng": 128.0317,
        "lat": 46.98571
    },
    {
        "name": "佳木斯市",
        "lng": 130.361634,
        "lat": 46.809606
    },
    {
        "name": "向阳区",
        "lng": 130.36519,
        "lat": 46.80778
    },
    {
        "name": "前进区",
        "lng": 130.37497,
        "lat": 46.81401
    },
    {
        "name": "东风区",
        "lng": 130.40366,
        "lat": 46.82257
    },
    {
        "name": "郊区",
        "lng": 130.32731,
        "lat": 46.80958
    },
    {
        "name": "桦南县",
        "lng": 130.55361,
        "lat": 46.23921
    },
    {
        "name": "桦川县",
        "lng": 130.71893,
        "lat": 47.02297
    },
    {
        "name": "汤原县",
        "lng": 129.90966,
        "lat": 46.72755
    },
    {
        "name": "抚远县",
        "lng": 134.29595,
        "lat": 48.36794
    },
    {
        "name": "同江市",
        "lng": 132.51095,
        "lat": 47.64211
    },
    {
        "name": "富锦市",
        "lng": 132.03707,
        "lat": 47.25132
    },
    {
        "name": "七台河市",
        "lng": 131.015584,
        "lat": 45.771266
    },
    {
        "name": "新兴区",
        "lng": 130.93212,
        "lat": 45.81624
    },
    {
        "name": "桃山区",
        "lng": 131.01786,
        "lat": 45.76782
    },
    {
        "name": "茄子河区",
        "lng": 131.06807,
        "lat": 45.78519
    },
    {
        "name": "勃利县",
        "lng": 130.59179,
        "lat": 45.755
    },
    {
        "name": "牡丹江市",
        "lng": 129.618602,
        "lat": 44.582962
    },
    {
        "name": "东安区",
        "lng": 129.62665,
        "lat": 44.58133
    },
    {
        "name": "阳明区",
        "lng": 129.63547,
        "lat": 44.59603
    },
    {
        "name": "爱民区",
        "lng": 129.59077,
        "lat": 44.59648
    },
    {
        "name": "西安区",
        "lng": 129.61616,
        "lat": 44.57766
    },
    {
        "name": "东宁县",
        "lng": 131.12793,
        "lat": 44.0661
    },
    {
        "name": "林口县",
        "lng": 130.28393,
        "lat": 45.27809
    },
    {
        "name": "绥芬河市",
        "lng": 131.15139,
        "lat": 44.41249
    },
    {
        "name": "海林市",
        "lng": 129.38156,
        "lat": 44.59
    },
    {
        "name": "宁安市",
        "lng": 129.48303,
        "lat": 44.34016
    },
    {
        "name": "穆棱市",
        "lng": 130.52465,
        "lat": 44.919
    },
    {
        "name": "黑河市",
        "lng": 127.499023,
        "lat": 50.249585
    },
    {
        "name": "爱辉区",
        "lng": 127.50074,
        "lat": 50.25202
    },
    {
        "name": "嫩江县",
        "lng": 125.22607,
        "lat": 49.17844
    },
    {
        "name": "逊克县",
        "lng": 128.47882,
        "lat": 49.57983
    },
    {
        "name": "孙吴县",
        "lng": 127.33599,
        "lat": 49.42539
    },
    {
        "name": "北安市",
        "lng": 126.48193,
        "lat": 48.23872
    },
    {
        "name": "五大连池市",
        "lng": 126.20294,
        "lat": 48.51507
    },
    {
        "name": "绥化市",
        "lng": 126.99293,
        "lat": 46.637393
    },
    {
        "name": "北林区",
        "lng": 126.98564,
        "lat": 46.63735
    },
    {
        "name": "望奎县",
        "lng": 126.48187,
        "lat": 46.83079
    },
    {
        "name": "兰西县",
        "lng": 126.28994,
        "lat": 46.2525
    },
    {
        "name": "青冈县",
        "lng": 126.11325,
        "lat": 46.68534
    },
    {
        "name": "庆安县",
        "lng": 127.50753,
        "lat": 46.88016
    },
    {
        "name": "明水县",
        "lng": 125.90594,
        "lat": 47.17327
    },
    {
        "name": "绥棱县",
        "lng": 127.11584,
        "lat": 47.24267
    },
    {
        "name": "安达市",
        "lng": 125.34375,
        "lat": 46.4177
    },
    {
        "name": "肇东市",
        "lng": 125.96243,
        "lat": 46.05131
    },
    {
        "name": "海伦市",
        "lng": 126.9682,
        "lat": 47.46093
    },
    {
        "name": "大兴安岭地区",
        "lng": 124.711526,
        "lat": 52.335262
    },
    {
        "name": "加格达奇区",
        "lng": 124.30954,
        "lat": 51.98144
    },
    {
        "name": "新林区",
        "lng": 124.397983,
        "lat": 51.67341
    },
    {
        "name": "松岭区",
        "lng": 124.189713,
        "lat": 51.985453
    },
    {
        "name": "呼中区",
        "lng": 123.60009,
        "lat": 52.03346
    },
    {
        "name": "呼玛县",
        "lng": 126.66174,
        "lat": 51.73112
    },
    {
        "name": "塔河县",
        "lng": 124.70999,
        "lat": 52.33431
    },
    {
        "name": "漠河县",
        "lng": 122.53759,
        "lat": 52.97003
    },
    {
        "name": "上海",
        "lng": 121.472644,
        "lat": 31.231706
    },
    {
        "name": "上海市",
        "lng": 121.472644,
        "lat": 31.231706
    },
    {
        "name": "黄浦区",
        "lng": 121.49295,
        "lat": 31.22337
    },
    {
        "name": "徐汇区",
        "lng": 121.43676,
        "lat": 31.18831
    },
    {
        "name": "长宁区",
        "lng": 121.42462,
        "lat": 31.22036
    },
    {
        "name": "静安区",
        "lng": 121.4444,
        "lat": 31.22884
    },
    {
        "name": "普陀区",
        "lng": 121.39703,
        "lat": 31.24951
    },
    {
        "name": "闸北区",
        "lng": 121.44636,
        "lat": 31.28075
    },
    {
        "name": "虹口区",
        "lng": 121.48162,
        "lat": 31.27788
    },
    {
        "name": "杨浦区",
        "lng": 121.526,
        "lat": 31.2595
    },
    {
        "name": "闵行区",
        "lng": 121.38162,
        "lat": 31.11246
    },
    {
        "name": "宝山区",
        "lng": 121.4891,
        "lat": 31.4045
    },
    {
        "name": "嘉定区",
        "lng": 121.2655,
        "lat": 31.37473
    },
    {
        "name": "浦东新区",
        "lng": 121.5447,
        "lat": 31.22249
    },
    {
        "name": "金山区",
        "lng": 121.34164,
        "lat": 30.74163
    },
    {
        "name": "松江区",
        "lng": 121.22879,
        "lat": 31.03222
    },
    {
        "name": "青浦区",
        "lng": 121.12417,
        "lat": 31.14974
    },
    {
        "name": "奉贤区",
        "lng": 121.47412,
        "lat": 30.9179
    },
    {
        "name": "崇明县",
        "lng": 121.39758,
        "lat": 31.62278
    },
    {
        "name": "江苏省",
        "lng": 118.767413,
        "lat": 32.041544
    },
    {
        "name": "南京市",
        "lng": 118.767413,
        "lat": 32.041544
    },
    {
        "name": "玄武区",
        "lng": 118.79772,
        "lat": 32.04856
    },
    {
        "name": "秦淮区",
        "lng": 118.79815,
        "lat": 32.01112
    },
    {
        "name": "建邺区",
        "lng": 118.76641,
        "lat": 32.03096
    },
    {
        "name": "鼓楼区",
        "lng": 118.76974,
        "lat": 32.06632
    },
    {
        "name": "浦口区",
        "lng": 118.62802,
        "lat": 32.05881
    },
    {
        "name": "栖霞区",
        "lng": 118.88064,
        "lat": 32.11352
    },
    {
        "name": "雨花台区",
        "lng": 118.7799,
        "lat": 31.99202
    },
    {
        "name": "江宁区",
        "lng": 118.8399,
        "lat": 31.95263
    },
    {
        "name": "六合区",
        "lng": 118.8413,
        "lat": 32.34222
    },
    {
        "name": "溧水区",
        "lng": 119.028732,
        "lat": 31.653061
    },
    {
        "name": "高淳区",
        "lng": 118.87589,
        "lat": 31.327132
    },
    {
        "name": "无锡市",
        "lng": 120.301663,
        "lat": 31.574729
    },
    {
        "name": "崇安区",
        "lng": 120.29975,
        "lat": 31.58002
    },
    {
        "name": "南长区",
        "lng": 120.30873,
        "lat": 31.56359
    },
    {
        "name": "北塘区",
        "lng": 120.29405,
        "lat": 31.60592
    },
    {
        "name": "锡山区",
        "lng": 120.35699,
        "lat": 31.5886
    },
    {
        "name": "惠山区",
        "lng": 120.29849,
        "lat": 31.68088
    },
    {
        "name": "滨湖区",
        "lng": 120.29461,
        "lat": 31.52162
    },
    {
        "name": "江阴市",
        "lng": 120.2853,
        "lat": 31.91996
    },
    {
        "name": "宜兴市",
        "lng": 119.82357,
        "lat": 31.33978
    },
    {
        "name": "徐州市",
        "lng": 117.184811,
        "lat": 34.261792
    },
    {
        "name": "鼓楼区",
        "lng": 117.18559,
        "lat": 34.28851
    },
    {
        "name": "云龙区",
        "lng": 117.23053,
        "lat": 34.24895
    },
    {
        "name": "贾汪区",
        "lng": 117.45346,
        "lat": 34.44264
    },
    {
        "name": "泉山区",
        "lng": 117.19378,
        "lat": 34.24418
    },
    {
        "name": "铜山区",
        "lng": 117.183894,
        "lat": 34.19288
    },
    {
        "name": "丰县",
        "lng": 116.59957,
        "lat": 34.69972
    },
    {
        "name": "沛县",
        "lng": 116.93743,
        "lat": 34.72163
    },
    {
        "name": "睢宁县",
        "lng": 117.94104,
        "lat": 33.91269
    },
    {
        "name": "新沂市",
        "lng": 118.35452,
        "lat": 34.36942
    },
    {
        "name": "邳州市",
        "lng": 117.95858,
        "lat": 34.33329
    },
    {
        "name": "常州市",
        "lng": 119.946973,
        "lat": 31.772752
    },
    {
        "name": "天宁区",
        "lng": 119.95132,
        "lat": 31.75211
    },
    {
        "name": "钟楼区",
        "lng": 119.90178,
        "lat": 31.80221
    },
    {
        "name": "戚墅堰区",
        "lng": 120.06106,
        "lat": 31.71956
    },
    {
        "name": "新北区",
        "lng": 119.97131,
        "lat": 31.83046
    },
    {
        "name": "武进区",
        "lng": 119.94244,
        "lat": 31.70086
    },
    {
        "name": "溧阳市",
        "lng": 119.4837,
        "lat": 31.41538
    },
    {
        "name": "金坛市",
        "lng": 119.57757,
        "lat": 31.74043
    },
    {
        "name": "苏州市",
        "lng": 120.619585,
        "lat": 31.299379
    },
    {
        "name": "虎丘区",
        "lng": 120.57345,
        "lat": 31.2953
    },
    {
        "name": "吴中区",
        "lng": 120.63211,
        "lat": 31.26226
    },
    {
        "name": "相城区",
        "lng": 120.64239,
        "lat": 31.36889
    },
    {
        "name": "姑苏区",
        "lng": 120.619585,
        "lat": 31.299379
    },
    {
        "name": "吴江区",
        "lng": 120.638317,
        "lat": 31.159815
    },
    {
        "name": "常熟市",
        "lng": 120.75225,
        "lat": 31.65374
    },
    {
        "name": "张家港市",
        "lng": 120.55538,
        "lat": 31.87532
    },
    {
        "name": "昆山市",
        "lng": 120.98074,
        "lat": 31.38464
    },
    {
        "name": "太仓市",
        "lng": 121.10891,
        "lat": 31.4497
    },
    {
        "name": "南通市",
        "lng": 120.864608,
        "lat": 32.016212
    },
    {
        "name": "崇川区",
        "lng": 120.8573,
        "lat": 32.0098
    },
    {
        "name": "港闸区",
        "lng": 120.81778,
        "lat": 32.03163
    },
    {
        "name": "通州区",
        "lng": 121.07293,
        "lat": 32.0676
    },
    {
        "name": "海安县",
        "lng": 120.45852,
        "lat": 32.54514
    },
    {
        "name": "如东县",
        "lng": 121.18942,
        "lat": 32.31439
    },
    {
        "name": "启东市",
        "lng": 121.65985,
        "lat": 31.81083
    },
    {
        "name": "如皋市",
        "lng": 120.55969,
        "lat": 32.37597
    },
    {
        "name": "海门市",
        "lng": 121.16995,
        "lat": 31.89422
    },
    {
        "name": "连云港市",
        "lng": 119.178821,
        "lat": 34.600018
    },
    {
        "name": "连云区",
        "lng": 119.37304,
        "lat": 34.75293
    },
    {
        "name": "海州区",
        "lng": 119.13128,
        "lat": 34.56986
    },
    {
        "name": "赣榆区",
        "lng": 119.128774,
        "lat": 34.839154
    },
    {
        "name": "东海县",
        "lng": 118.77145,
        "lat": 34.54215
    },
    {
        "name": "灌云县",
        "lng": 119.23925,
        "lat": 34.28391
    },
    {
        "name": "灌南县",
        "lng": 119.35632,
        "lat": 34.09
    },
    {
        "name": "淮安市",
        "lng": 119.021265,
        "lat": 33.597506
    },
    {
        "name": "清河区",
        "lng": 119.00778,
        "lat": 33.59949
    },
    {
        "name": "淮安区",
        "lng": 119.021265,
        "lat": 33.597506
    },
    {
        "name": "淮阴区",
        "lng": 119.03485,
        "lat": 33.63171
    },
    {
        "name": "清浦区",
        "lng": 119.02648,
        "lat": 33.55232
    },
    {
        "name": "涟水县",
        "lng": 119.26083,
        "lat": 33.78094
    },
    {
        "name": "洪泽县",
        "lng": 118.87344,
        "lat": 33.29429
    },
    {
        "name": "盱眙县",
        "lng": 118.54495,
        "lat": 33.01086
    },
    {
        "name": "金湖县",
        "lng": 119.02307,
        "lat": 33.02219
    },
    {
        "name": "盐城市",
        "lng": 120.139998,
        "lat": 33.377631
    },
    {
        "name": "亭湖区",
        "lng": 120.16583,
        "lat": 33.37825
    },
    {
        "name": "盐都区",
        "lng": 120.15441,
        "lat": 33.3373
    },
    {
        "name": "响水县",
        "lng": 119.56985,
        "lat": 34.20513
    },
    {
        "name": "滨海县",
        "lng": 119.82058,
        "lat": 33.98972
    },
    {
        "name": "阜宁县",
        "lng": 119.80175,
        "lat": 33.78228
    },
    {
        "name": "射阳县",
        "lng": 120.26043,
        "lat": 33.77636
    },
    {
        "name": "建湖县",
        "lng": 119.79852,
        "lat": 33.47241
    },
    {
        "name": "东台市",
        "lng": 120.32376,
        "lat": 32.85078
    },
    {
        "name": "大丰市",
        "lng": 120.46594,
        "lat": 33.19893
    },
    {
        "name": "扬州市",
        "lng": 119.421003,
        "lat": 32.393159
    },
    {
        "name": "广陵区",
        "lng": 119.43186,
        "lat": 32.39472
    },
    {
        "name": "邗江区",
        "lng": 119.39816,
        "lat": 32.3765
    },
    {
        "name": "江都区",
        "lng": 119.567481,
        "lat": 32.426564
    },
    {
        "name": "宝应县",
        "lng": 119.31213,
        "lat": 33.23549
    },
    {
        "name": "仪征市",
        "lng": 119.18432,
        "lat": 32.27197
    },
    {
        "name": "高邮市",
        "lng": 119.45965,
        "lat": 32.78135
    },
    {
        "name": "镇江市",
        "lng": 119.452753,
        "lat": 32.204402
    },
    {
        "name": "京口区",
        "lng": 119.46947,
        "lat": 32.19809
    },
    {
        "name": "润州区",
        "lng": 119.41134,
        "lat": 32.19523
    },
    {
        "name": "丹徒区",
        "lng": 119.43383,
        "lat": 32.13183
    },
    {
        "name": "丹阳市",
        "lng": 119.57525,
        "lat": 31.99121
    },
    {
        "name": "扬中市",
        "lng": 119.79718,
        "lat": 32.2363
    },
    {
        "name": "句容市",
        "lng": 119.16482,
        "lat": 31.95591
    },
    {
        "name": "泰州市",
        "lng": 119.915176,
        "lat": 32.484882
    },
    {
        "name": "海陵区",
        "lng": 119.91942,
        "lat": 32.49101
    },
    {
        "name": "高港区",
        "lng": 119.88089,
        "lat": 32.31833
    },
    {
        "name": "姜堰区",
        "lng": 120.148208,
        "lat": 32.508483
    },
    {
        "name": "兴化市",
        "lng": 119.85238,
        "lat": 32.90944
    },
    {
        "name": "靖江市",
        "lng": 120.27291,
        "lat": 32.01595
    },
    {
        "name": "泰兴市",
        "lng": 120.05194,
        "lat": 32.17187
    },
    {
        "name": "宿迁市",
        "lng": 118.293328,
        "lat": 33.945154
    },
    {
        "name": "宿城区",
        "lng": 118.29141,
        "lat": 33.94219
    },
    {
        "name": "宿豫区",
        "lng": 118.32922,
        "lat": 33.94673
    },
    {
        "name": "沭阳县",
        "lng": 118.76873,
        "lat": 34.11446
    },
    {
        "name": "泗阳县",
        "lng": 118.7033,
        "lat": 33.72096
    },
    {
        "name": "泗洪县",
        "lng": 118.21716,
        "lat": 33.45996
    },
    {
        "name": "浙江省",
        "lng": 120.153576,
        "lat": 30.287459
    },
    {
        "name": "杭州市",
        "lng": 120.153576,
        "lat": 30.287459
    },
    {
        "name": "上城区",
        "lng": 120.16922,
        "lat": 30.24255
    },
    {
        "name": "下城区",
        "lng": 120.18096,
        "lat": 30.28153
    },
    {
        "name": "江干区",
        "lng": 120.20517,
        "lat": 30.2572
    },
    {
        "name": "拱墅区",
        "lng": 120.14209,
        "lat": 30.31968
    },
    {
        "name": "西湖区",
        "lng": 120.12979,
        "lat": 30.25949
    },
    {
        "name": "滨江区",
        "lng": 120.21194,
        "lat": 30.20835
    },
    {
        "name": "萧山区",
        "lng": 120.26452,
        "lat": 30.18505
    },
    {
        "name": "余杭区",
        "lng": 120.29986,
        "lat": 30.41829
    },
    {
        "name": "桐庐县",
        "lng": 119.68853,
        "lat": 29.79779
    },
    {
        "name": "淳安县",
        "lng": 119.04257,
        "lat": 29.60988
    },
    {
        "name": "建德市",
        "lng": 119.28158,
        "lat": 29.47603
    },
    {
        "name": "富阳区",
        "lng": 119.96041,
        "lat": 30.04878
    },
    {
        "name": "临安市",
        "lng": 119.72473,
        "lat": 30.23447
    },
    {
        "name": "宁波市",
        "lng": 121.549792,
        "lat": 29.868388
    },
    {
        "name": "海曙区",
        "lng": 121.55106,
        "lat": 29.85977
    },
    {
        "name": "江东区",
        "lng": 121.57028,
        "lat": 29.86701
    },
    {
        "name": "江北区",
        "lng": 121.55681,
        "lat": 29.88776
    },
    {
        "name": "北仑区",
        "lng": 121.84408,
        "lat": 29.90069
    },
    {
        "name": "镇海区",
        "lng": 121.71615,
        "lat": 29.94893
    },
    {
        "name": "鄞州区",
        "lng": 121.54754,
        "lat": 29.81614
    },
    {
        "name": "象山县",
        "lng": 121.86917,
        "lat": 29.47758
    },
    {
        "name": "宁海县",
        "lng": 121.43072,
        "lat": 29.2889
    },
    {
        "name": "余姚市",
        "lng": 121.15341,
        "lat": 30.03867
    },
    {
        "name": "慈溪市",
        "lng": 121.26641,
        "lat": 30.16959
    },
    {
        "name": "奉化市",
        "lng": 121.41003,
        "lat": 29.65537
    },
    {
        "name": "温州市",
        "lng": 120.672111,
        "lat": 28.000575
    },
    {
        "name": "鹿城区",
        "lng": 120.65505,
        "lat": 28.01489
    },
    {
        "name": "龙湾区",
        "lng": 120.83053,
        "lat": 27.91284
    },
    {
        "name": "瓯海区",
        "lng": 120.63751,
        "lat": 28.00714
    },
    {
        "name": "洞头县",
        "lng": 121.15606,
        "lat": 27.83634
    },
    {
        "name": "永嘉县",
        "lng": 120.69317,
        "lat": 28.15456
    },
    {
        "name": "平阳县",
        "lng": 120.56506,
        "lat": 27.66245
    },
    {
        "name": "苍南县",
        "lng": 120.42608,
        "lat": 27.51739
    },
    {
        "name": "文成县",
        "lng": 120.09063,
        "lat": 27.78678
    },
    {
        "name": "泰顺县",
        "lng": 119.7182,
        "lat": 27.55694
    },
    {
        "name": "瑞安市",
        "lng": 120.65466,
        "lat": 27.78041
    },
    {
        "name": "乐清市",
        "lng": 120.9617,
        "lat": 28.12404
    },
    {
        "name": "嘉兴市",
        "lng": 120.750865,
        "lat": 30.762653
    },
    {
        "name": "南湖区",
        "lng": 120.78524,
        "lat": 30.74865
    },
    {
        "name": "秀洲区",
        "lng": 120.70867,
        "lat": 30.76454
    },
    {
        "name": "嘉善县",
        "lng": 120.92559,
        "lat": 30.82993
    },
    {
        "name": "海盐县",
        "lng": 120.9457,
        "lat": 30.52547
    },
    {
        "name": "海宁市",
        "lng": 120.6813,
        "lat": 30.5097
    },
    {
        "name": "平湖市",
        "lng": 121.02166,
        "lat": 30.69618
    },
    {
        "name": "桐乡市",
        "lng": 120.56485,
        "lat": 30.6302
    },
    {
        "name": "湖州市",
        "lng": 120.102398,
        "lat": 30.867198
    },
    {
        "name": "吴兴区",
        "lng": 120.12548,
        "lat": 30.85752
    },
    {
        "name": "南浔区",
        "lng": 120.42038,
        "lat": 30.86686
    },
    {
        "name": "德清县",
        "lng": 119.97836,
        "lat": 30.53369
    },
    {
        "name": "长兴县",
        "lng": 119.90783,
        "lat": 31.00606
    },
    {
        "name": "安吉县",
        "lng": 119.68158,
        "lat": 30.63798
    },
    {
        "name": "绍兴市",
        "lng": 120.582112,
        "lat": 29.997117
    },
    {
        "name": "越城区",
        "lng": 120.5819,
        "lat": 29.98895
    },
    {
        "name": "柯桥区",
        "lng": 120.492736,
        "lat": 30.08763
    },
    {
        "name": "上虞区",
        "lng": 120.476075,
        "lat": 30.078038
    },
    {
        "name": "新昌县",
        "lng": 120.90435,
        "lat": 29.49991
    },
    {
        "name": "诸暨市",
        "lng": 120.23629,
        "lat": 29.71358
    },
    {
        "name": "嵊州市",
        "lng": 120.82174,
        "lat": 29.58854
    },
    {
        "name": "金华市",
        "lng": 119.649506,
        "lat": 29.089524
    },
    {
        "name": "婺城区",
        "lng": 119.57135,
        "lat": 29.09521
    },
    {
        "name": "金东区",
        "lng": 119.69302,
        "lat": 29.0991
    },
    {
        "name": "武义县",
        "lng": 119.8164,
        "lat": 28.89331
    },
    {
        "name": "浦江县",
        "lng": 119.89181,
        "lat": 29.45353
    },
    {
        "name": "磐安县",
        "lng": 120.45022,
        "lat": 29.05733
    },
    {
        "name": "兰溪市",
        "lng": 119.45965,
        "lat": 29.20841
    },
    {
        "name": "义乌市",
        "lng": 120.0744,
        "lat": 29.30558
    },
    {
        "name": "东阳市",
        "lng": 120.24185,
        "lat": 29.28942
    },
    {
        "name": "永康市",
        "lng": 120.04727,
        "lat": 28.88844
    },
    {
        "name": "衢州市",
        "lng": 118.87263,
        "lat": 28.941708
    },
    {
        "name": "柯城区",
        "lng": 118.87109,
        "lat": 28.96858
    },
    {
        "name": "衢江区",
        "lng": 118.9598,
        "lat": 28.97977
    },
    {
        "name": "常山县",
        "lng": 118.51025,
        "lat": 28.90191
    },
    {
        "name": "开化县",
        "lng": 118.41616,
        "lat": 29.13785
    },
    {
        "name": "龙游县",
        "lng": 119.17221,
        "lat": 29.02823
    },
    {
        "name": "江山市",
        "lng": 118.62674,
        "lat": 28.7386
    },
    {
        "name": "舟山市",
        "lng": 122.106863,
        "lat": 30.016028
    },
    {
        "name": "定海区",
        "lng": 122.10677,
        "lat": 30.01985
    },
    {
        "name": "普陀区",
        "lng": 122.30278,
        "lat": 29.94908
    },
    {
        "name": "岱山县",
        "lng": 122.20486,
        "lat": 30.24385
    },
    {
        "name": "嵊泗县",
        "lng": 122.45129,
        "lat": 30.72678
    },
    {
        "name": "台州市",
        "lng": 121.428599,
        "lat": 28.661378
    },
    {
        "name": "椒江区",
        "lng": 121.44287,
        "lat": 28.67301
    },
    {
        "name": "黄岩区",
        "lng": 121.25891,
        "lat": 28.65077
    },
    {
        "name": "路桥区",
        "lng": 121.37381,
        "lat": 28.58016
    },
    {
        "name": "玉环县",
        "lng": 121.23242,
        "lat": 28.13637
    },
    {
        "name": "三门县",
        "lng": 121.3937,
        "lat": 29.1051
    },
    {
        "name": "天台县",
        "lng": 121.00848,
        "lat": 29.1429
    },
    {
        "name": "仙居县",
        "lng": 120.72872,
        "lat": 28.84672
    },
    {
        "name": "温岭市",
        "lng": 121.38595,
        "lat": 28.37176
    },
    {
        "name": "临海市",
        "lng": 121.13885,
        "lat": 28.85603
    },
    {
        "name": "丽水市",
        "lng": 119.921786,
        "lat": 28.451993
    },
    {
        "name": "莲都区",
        "lng": 119.9127,
        "lat": 28.44583
    },
    {
        "name": "青田县",
        "lng": 120.29028,
        "lat": 28.13897
    },
    {
        "name": "缙云县",
        "lng": 120.09036,
        "lat": 28.65944
    },
    {
        "name": "遂昌县",
        "lng": 119.27606,
        "lat": 28.59291
    },
    {
        "name": "松阳县",
        "lng": 119.48199,
        "lat": 28.4494
    },
    {
        "name": "云和县",
        "lng": 119.57287,
        "lat": 28.11643
    },
    {
        "name": "庆元县",
        "lng": 119.06256,
        "lat": 27.61842
    },
    {
        "name": "景宁畲族自治县",
        "lng": 119.63839,
        "lat": 27.97393
    },
    {
        "name": "龙泉市",
        "lng": 119.14163,
        "lat": 28.0743
    },
    {
        "name": "舟山群岛新区",
        "lng": 122.317657,
        "lat": 29.813242
    },
    {
        "name": "金塘岛",
        "lng": 121.893373,
        "lat": 30.040641
    },
    {
        "name": "六横岛",
        "lng": 122.14265,
        "lat": 29.662938
    },
    {
        "name": "衢山岛",
        "lng": 122.358425,
        "lat": 30.442642
    },
    {
        "name": "舟山本岛西北部",
        "lng": 122.03064,
        "lat": 30.140377
    },
    {
        "name": "岱山岛西南部",
        "lng": 122.180123,
        "lat": 30.277269
    },
    {
        "name": "泗礁岛",
        "lng": 122.45803,
        "lat": 30.725112
    },
    {
        "name": "朱家尖岛",
        "lng": 122.390636,
        "lat": 29.916303
    },
    {
        "name": "洋山岛",
        "lng": 121.995891,
        "lat": 30.094637
    },
    {
        "name": "长涂岛",
        "lng": 122.284681,
        "lat": 30.24888
    },
    {
        "name": "虾峙岛",
        "lng": 122.244686,
        "lat": 29.752941
    },
    {
        "name": "安徽省",
        "lng": 117.283042,
        "lat": 31.86119
    },
    {
        "name": "合肥市",
        "lng": 117.283042,
        "lat": 31.86119
    },
    {
        "name": "瑶海区",
        "lng": 117.30947,
        "lat": 31.85809
    },
    {
        "name": "庐阳区",
        "lng": 117.26452,
        "lat": 31.87874
    },
    {
        "name": "蜀山区",
        "lng": 117.26104,
        "lat": 31.85117
    },
    {
        "name": "包河区",
        "lng": 117.30984,
        "lat": 31.79502
    },
    {
        "name": "长丰县",
        "lng": 117.16549,
        "lat": 32.47959
    },
    {
        "name": "肥东县",
        "lng": 117.47128,
        "lat": 31.88525
    },
    {
        "name": "肥西县",
        "lng": 117.16845,
        "lat": 31.72143
    },
    {
        "name": "庐江县",
        "lng": 117.289844,
        "lat": 31.251488
    },
    {
        "name": "巢湖市",
        "lng": 117.874155,
        "lat": 31.600518
    },
    {
        "name": "芜湖市",
        "lng": 118.376451,
        "lat": 31.326319
    },
    {
        "name": "镜湖区",
        "lng": 118.38525,
        "lat": 31.34038
    },
    {
        "name": "弋江区",
        "lng": 118.37265,
        "lat": 31.31178
    },
    {
        "name": "鸠江区",
        "lng": 118.39215,
        "lat": 31.36928
    },
    {
        "name": "三山区",
        "lng": 118.22509,
        "lat": 31.20703
    },
    {
        "name": "芜湖县",
        "lng": 118.57525,
        "lat": 31.13476
    },
    {
        "name": "繁昌县",
        "lng": 118.19982,
        "lat": 31.08319
    },
    {
        "name": "南陵县",
        "lng": 118.33688,
        "lat": 30.91969
    },
    {
        "name": "无为县",
        "lng": 117.911432,
        "lat": 31.303075
    },
    {
        "name": "蚌埠市",
        "lng": 117.36237,
        "lat": 32.934037
    },
    {
        "name": "龙子湖区",
        "lng": 117.39379,
        "lat": 32.94301
    },
    {
        "name": "蚌山区",
        "lng": 117.36767,
        "lat": 32.94411
    },
    {
        "name": "禹会区",
        "lng": 117.35315,
        "lat": 32.93336
    },
    {
        "name": "淮上区",
        "lng": 117.35983,
        "lat": 32.96423
    },
    {
        "name": "怀远县",
        "lng": 117.20507,
        "lat": 32.97007
    },
    {
        "name": "五河县",
        "lng": 117.89144,
        "lat": 33.14457
    },
    {
        "name": "固镇县",
        "lng": 117.31558,
        "lat": 33.31803
    },
    {
        "name": "淮南市",
        "lng": 117.025449,
        "lat": 32.645947
    },
    {
        "name": "大通区",
        "lng": 117.05255,
        "lat": 32.63265
    },
    {
        "name": "田家庵区",
        "lng": 117.01739,
        "lat": 32.64697
    },
    {
        "name": "谢家集区",
        "lng": 116.86377,
        "lat": 32.59818
    },
    {
        "name": "八公山区",
        "lng": 116.83694,
        "lat": 32.62941
    },
    {
        "name": "潘集区",
        "lng": 116.81622,
        "lat": 32.78287
    },
    {
        "name": "凤台县",
        "lng": 116.71569,
        "lat": 32.70752
    },
    {
        "name": "马鞍山市",
        "lng": 118.507906,
        "lat": 31.689362
    },
    {
        "name": "花山区",
        "lng": 118.51231,
        "lat": 31.7001
    },
    {
        "name": "雨山区",
        "lng": 118.49869,
        "lat": 31.68219
    },
    {
        "name": "博望区",
        "lng": 118.844387,
        "lat": 31.561871
    },
    {
        "name": "当涂县",
        "lng": 118.49786,
        "lat": 31.57098
    },
    {
        "name": "含山县",
        "lng": 118.105545,
        "lat": 31.727758
    },
    {
        "name": "和县",
        "lng": 118.351405,
        "lat": 31.741794
    },
    {
        "name": "淮北市",
        "lng": 116.794664,
        "lat": 33.971707
    },
    {
        "name": "杜集区",
        "lng": 116.82998,
        "lat": 33.99363
    },
    {
        "name": "相山区",
        "lng": 116.79464,
        "lat": 33.95979
    },
    {
        "name": "烈山区",
        "lng": 116.81448,
        "lat": 33.89355
    },
    {
        "name": "濉溪县",
        "lng": 116.76785,
        "lat": 33.91455
    },
    {
        "name": "铜陵市",
        "lng": 117.816576,
        "lat": 30.929935
    },
    {
        "name": "铜官山区",
        "lng": 117.81525,
        "lat": 30.93423
    },
    {
        "name": "狮子山区",
        "lng": 117.89178,
        "lat": 30.92631
    },
    {
        "name": "郊区",
        "lng": 117.80868,
        "lat": 30.91976
    },
    {
        "name": "铜陵县",
        "lng": 117.79113,
        "lat": 30.95365
    },
    {
        "name": "安庆市",
        "lng": 117.053571,
        "lat": 30.524816
    },
    {
        "name": "迎江区",
        "lng": 117.0493,
        "lat": 30.50421
    },
    {
        "name": "大观区",
        "lng": 117.03426,
        "lat": 30.51216
    },
    {
        "name": "宜秀区",
        "lng": 117.06127,
        "lat": 30.50783
    },
    {
        "name": "怀宁县",
        "lng": 116.82968,
        "lat": 30.73376
    },
    {
        "name": "枞阳县",
        "lng": 117.22015,
        "lat": 30.69956
    },
    {
        "name": "潜山县",
        "lng": 116.57574,
        "lat": 30.63037
    },
    {
        "name": "太湖县",
        "lng": 116.3088,
        "lat": 30.4541
    },
    {
        "name": "宿松县",
        "lng": 116.12915,
        "lat": 30.1536
    },
    {
        "name": "望江县",
        "lng": 116.68814,
        "lat": 30.12585
    },
    {
        "name": "岳西县",
        "lng": 116.35995,
        "lat": 30.84983
    },
    {
        "name": "桐城市",
        "lng": 116.95071,
        "lat": 31.05216
    },
    {
        "name": "黄山市",
        "lng": 118.317325,
        "lat": 29.709239
    },
    {
        "name": "屯溪区",
        "lng": 118.33368,
        "lat": 29.71138
    },
    {
        "name": "黄山区",
        "lng": 118.1416,
        "lat": 30.2729
    },
    {
        "name": "徽州区",
        "lng": 118.33654,
        "lat": 29.82784
    },
    {
        "name": "歙县",
        "lng": 118.43676,
        "lat": 29.86745
    },
    {
        "name": "休宁县",
        "lng": 118.18136,
        "lat": 29.78607
    },
    {
        "name": "黟县",
        "lng": 117.94137,
        "lat": 29.92588
    },
    {
        "name": "祁门县",
        "lng": 117.71847,
        "lat": 29.85723
    },
    {
        "name": "滁州市",
        "lng": 118.316264,
        "lat": 32.303627
    },
    {
        "name": "琅琊区",
        "lng": 118.30538,
        "lat": 32.29521
    },
    {
        "name": "南谯区",
        "lng": 118.31222,
        "lat": 32.31861
    },
    {
        "name": "来安县",
        "lng": 118.43438,
        "lat": 32.45176
    },
    {
        "name": "全椒县",
        "lng": 118.27291,
        "lat": 32.08524
    },
    {
        "name": "定远县",
        "lng": 117.68035,
        "lat": 32.52488
    },
    {
        "name": "凤阳县",
        "lng": 117.56454,
        "lat": 32.86507
    },
    {
        "name": "天长市",
        "lng": 118.99868,
        "lat": 32.69124
    },
    {
        "name": "明光市",
        "lng": 117.99093,
        "lat": 32.77819
    },
    {
        "name": "阜阳市",
        "lng": 115.819729,
        "lat": 32.896969
    },
    {
        "name": "颍州区",
        "lng": 115.80694,
        "lat": 32.88346
    },
    {
        "name": "颍东区",
        "lng": 115.85659,
        "lat": 32.91296
    },
    {
        "name": "颍泉区",
        "lng": 115.80712,
        "lat": 32.9249
    },
    {
        "name": "临泉县",
        "lng": 115.26232,
        "lat": 33.06758
    },
    {
        "name": "太和县",
        "lng": 115.62191,
        "lat": 33.16025
    },
    {
        "name": "阜南县",
        "lng": 115.58563,
        "lat": 32.63551
    },
    {
        "name": "颍上县",
        "lng": 116.26458,
        "lat": 32.62998
    },
    {
        "name": "界首市",
        "lng": 115.37445,
        "lat": 33.25714
    },
    {
        "name": "宿州市",
        "lng": 116.984084,
        "lat": 33.633891
    },
    {
        "name": "埇桥区",
        "lng": 116.97731,
        "lat": 33.64058
    },
    {
        "name": "砀山县",
        "lng": 116.35363,
        "lat": 34.42356
    },
    {
        "name": "萧县",
        "lng": 116.94546,
        "lat": 34.1879
    },
    {
        "name": "灵璧县",
        "lng": 117.55813,
        "lat": 33.54339
    },
    {
        "name": "泗县",
        "lng": 117.91033,
        "lat": 33.48295
    },
    {
        "name": "六安市",
        "lng": 116.507676,
        "lat": 31.752889
    },
    {
        "name": "金安区",
        "lng": 116.50912,
        "lat": 31.75573
    },
    {
        "name": "裕安区",
        "lng": 116.47985,
        "lat": 31.73787
    },
    {
        "name": "寿县",
        "lng": 116.78466,
        "lat": 32.57653
    },
    {
        "name": "霍邱县",
        "lng": 116.27795,
        "lat": 32.353
    },
    {
        "name": "舒城县",
        "lng": 116.94491,
        "lat": 31.46413
    },
    {
        "name": "金寨县",
        "lng": 115.93463,
        "lat": 31.7351
    },
    {
        "name": "霍山县",
        "lng": 116.33291,
        "lat": 31.3929
    },
    {
        "name": "亳州市",
        "lng": 115.782939,
        "lat": 33.869338
    },
    {
        "name": "谯城区",
        "lng": 115.77941,
        "lat": 33.87532
    },
    {
        "name": "涡阳县",
        "lng": 116.21682,
        "lat": 33.50911
    },
    {
        "name": "蒙城县",
        "lng": 116.5646,
        "lat": 33.26477
    },
    {
        "name": "利辛县",
        "lng": 116.208,
        "lat": 33.14198
    },
    {
        "name": "池州市",
        "lng": 117.489157,
        "lat": 30.656037
    },
    {
        "name": "贵池区",
        "lng": 117.48722,
        "lat": 30.65283
    },
    {
        "name": "东至县",
        "lng": 117.02719,
        "lat": 30.0969
    },